id,province,name,Latitude,Longitude,Type,Name_Type,Year
26114,Gansu,City God Temple Democratic Management Committee,34.48527,106.556742,4,Daoism,1989
26115,Gansu,Wuzhai Mosque Democratic Management Committee,34.48527,106.556742,5,Islam,1980
26576,Gansu,Baiyun Daoist Temple Management Committee,36.062572,103.810678,4,Daoism,1948
26577,Gansu,Yufo Buddhist Temple,36.057551,103.831975,3,Buddhism,1998
26578,Gansu,Dongguan Mosque Management Committee,36.069628,103.838824,5,Islam,1987
26579,Gansu,Minjiaqiao Mosque,36.043694,103.831075,5,Islam,1980
26580,Gansu,Chengguan District Islamic Association,36.05932,103.85263,5,Islam,1970
26581,Gansu,Pingliang Road Mosque,36.04871,103.846439,5,Islam,1988
26582,Gansu,Lanzhou City Daoist Association,36.05932,103.85263,4,Daoism,1985
26583,Gansu,Lülan Mosque Management Committee,36.068276,103.827721,5,Islam,1981
26584,Gansu,Gansu Province Islamic Association,36.059989,103.812212,5,Islam,1957
26585,Gansu,Gansu Province Buddhist Association,36.038377,103.826786,30,Buddhism,1957
26586,Gansu,Zhigong Daoist Temple Management Committee,36.057257,103.825206,4,Daoism,1992
26587,Gansu,Wuquan Protestant Church,36.044424,103.826012,1,Protestantism,1987
26588,Gansu,Gansu Province Daoist Association,36.05932,103.85263,4,Daoism,1985
26589,Gansu,Jingyuan Road Women's Mosque Management Committee,36.067634,103.82545,5,Islam,1984
26590,Gansu,Mount Yunding Faxian Temple Renovation Board,36.0576,103.82102,3,Buddhism,2002
26591,Gansu,Donggang Town Mosque Management Committee,36.041163,103.921448,5,Islam,1982
26592,Gansu,Mufuti Mosque Management Committee,36.057028,103.820139,5,Islam,1990
26593,Gansu,Fulongping Mosque Management Committee,36.046301,103.811566,5,Islam,1981
26594,Gansu,Lanzhou City Buddhist Association,36.038377,103.826786,30,Buddhism,1992
26595,Gansu,Xiuheyan Mosque Management Committee,36.05556,103.81949,5,Islam,1988
26596,Gansu,Wenquan Mosque Qubba Management Committee,36.0454,103.84522,5,Islam,1882
26597,Gansu,Foguang Temple,36.0474,103.81381,3,Buddhism,2004
26598,Gansu,Lanzhou City Protestant Three-self Patriotic Movement Committee,36.059138,103.827746,10,Protestantism,1957
26599,Gansu,Shanzishi Protestant Church Affairs Management Committee,36.059144,103.827742,1,Protestantism,1923
26600,Gansu,Nanzhuanwayao Mosque,36.0391,103.8536,5,Islam,2002
26601,Gansu,Lingming Mosque Qubba Management Committee,36.060435,103.801577,5,Islam,1859
26602,Gansu,Hualin Road Mosque,36.05624,103.8008,5,Islam,1997
26603,Gansu,Xijin East Road Mosque Management Committee,36.062587,103.798745,5,Islam,1996
26604,Gansu,Lianhuachi Mosque,36.06806,103.79335,5,Islam,1983
26605,Gansu,Jile Temple,36.021094,103.813797,3,Buddhism,1993
26606,Gansu,Jintian Daoist Temple Management Committee,36.059563,103.804922,4,Daoism,1980
26607,Gansu,Jingning County Protestant Church,36.0541,103.8317,1,Protestantism,1990
26608,Gansu,Mabao Qubba Mosque Management Committee,36.049142,103.784728,5,Islam,1989
26609,Gansu,Yeman Qubba (Mosque)  Management Committee,36.057102,103.78817,5,Islam,1954
26610,Gansu,Ningjing Qubba (Mosque),36.06901,103.78424,5,Islam,1979
26611,Gansu,Jiangouyan Mosque,36.059983,103.7895,5,Islam,1983
26612,Gansu,Chonghe Mosque Qubba Management Committee,36.05323,103.78773,5,Islam,1953
26613,Gansu,Mount Luo Jinhua Temple,35.938946,103.801535,4,Daoism,1992
26614,Gansu,Mount Tiandu Temple Management Committee,35.938809,103.868352,3,Buddhism,1986
26615,Gansu,Changsheng Temple Management Committee,35.991622,103.835614,4,Daoism,1993
26616,Gansu,Xiangyuan Temple Management Committee,36.048339,103.783608,5,Islam,1982
26617,Gansu,Guanyin Temple,36.057515,103.694985,3,Buddhism,1991
26618,Gansu,Jingye Temple Pure Land Association,35.907511,103.847525,3,Buddhism,1996
26619,Gansu,Shuanglong Temple Management Committee,35.991622,103.835614,3,Buddhism,1992
26620,Gansu,Lingming Mosque Qubba Management Committee,36.049142,103.784728,5,Islam,1986
26621,Gansu,Xiping Qubba (Mosque) Management Committee,36.049142,103.784728,5,Islam,1985
26622,Gansu,Shimendun Mosque,36.081172,103.727392,5,Islam,2000
26623,Gansu,Egan Town Protestatn Church,35.8987,103.842848,1,Protestantism,1990
26624,Gansu,Egan Mosque,35.916206,103.84945,5,Islam,1943
26625,Gansu,Jiaolong Buddhist Temple Management Committee,35.97171,103.760432,3,Buddhism,1990
26626,Gansu,Holy Mother Daoist Temple,36.062287,103.735007,4,Daoism,1984
26627,Gansu,Haitai Qubba (Mosque) Management Committee,36.057102,103.78817,5,Islam,1984
26628,Gansu,Yaowang Daoist Cavern (Temple) Management Committee,35.993828,103.835714,4,Daoism,1950
26629,Gansu,Anxi Road Mosque,36.068105,103.782746,5,Islam,1979
26630,Gansu,Qilihe District Protestant Three-self Patriotic Movement Committee,36.078606,103.772201,10,Protestantism,1997
26631,Gansu,Mount Yunding Faxian Temple,35.892089,103.878722,3,Buddhism,2003
26632,Gansu,Xiguoyuan Protestant Church Management Group,35.9732,103.7626,1,Protestantism,1991
26633,Gansu,Baishuxiang Mosque,36.062165,103.792201,5,Islam,1996
26634,Gansu,Tianwang Temple,36.049156,103.633062,4,Daoism,1985
26635,Gansu,Chunyang Temple Management Committee,36.068861,103.677686,4,Daoism,1986
26636,Gansu,Sansheng Temple,36.069267,103.661121,3,Buddhism,1989
26637,Gansu,City God Temple,36.097111,103.613068,4,Daoism,1984
26638,Gansu,Yongqing Temple,36.131144,103.386812,3,Buddhism,2004
26639,Gansu,Huiguang Temple,36.068861,103.677686,3,Buddhism,1996
26640,Gansu,Holy Mother Temple Democratic Management Committee,36.121423,103.622983,4,Daoism,1988
26641,Gansu,Zushi Temple Management Committee,36.131144,103.386812,4,Daoism,1986
26642,Gansu,Xigu District Mosque,36.0941,103.6258,5,Islam,1990
26643,Gansu,Tuzhu Temple,36.101176,103.583978,4,Daoism,1983
26644,Gansu,Changqing Temple,36.101176,103.583978,3,Buddhism,1998
26645,Gansu,Mount Lianhua Guanyin Temple,36.17378,103.440975,3,Buddhism,1972
26646,Gansu,Xigu Protestant Church,36.097111,103.613068,1,Protestantism,1982
26647,Gansu,Zushi Temple,36.069267,103.661121,4,Daoism,1989
26648,Gansu,Mount Renshou Religious Management Committee,36.129049,103.689418,4,Daoism,1996
26649,Gansu,Anning Mosque Management Committee,36.1016,103.7484,5,Islam,1996
26650,Gansu,Changfeng Protestant Church,36.108763,103.707891,1,Protestantism,1988
26651,Gansu,Huazhuang Mosque,36.182348,103.175956,5,Islam,1999
26652,Gansu,Taiping Temple,36.139385,103.346981,4,Daoism,1983
26653,Gansu,Xinjian Mosque,36.274502,103.004875,5,Islam,1994
26654,Gansu,Hutouya Village Mosque Management Committee,36.335082,102.890888,5,Islam,1990
26655,Gansu,First Mosque Management Committee,36.430006,102.874704,5,Islam,1982
26656,Gansu,Shangxuanzi Mosque Management Committee,36.316546,102.917499,5,Islam,1987
26657,Gansu,Xuejia Mosque,36.301613,102.97076,5,Islam,1982
26658,Gansu,Haishiwan North Mosque Management Committee,36.3413,102.865,5,Islam,1979
26659,Gansu,Taishang Temple Management Committee,36.233715,103.079388,4,Daoism,1987
26660,Gansu,Dongzi Village Mosque,36.2255,103.0998,5,Islam,1986
26661,Gansu,Yongning Temple Management Committee,36.169438,103.285349,3,Buddhism,1996
26662,Gansu,Xuanji Temple Management Committee,36.430006,102.874704,3,Buddhism,1995
26663,Gansu,Xiayao West Mosque Management Committee,36.402694,102.864618,5,Islam,1985
26664,Gansu,Baoshan Temple Management Committee,36.237013,103.067634,3,Buddhism,1992
26665,Gansu,Xiayao East Mosque,36.402694,102.864618,5,Islam,1980
26666,Gansu,Taihe Temple,36.159047,103.31281,4,Daoism,1981
26667,Gansu,Yaojie Mosque,36.427302,102.873217,5,Islam,1984
26668,Gansu,Tuanjie Grand Mosque Management Committee,36.3413,102.865,5,Islam,2003
26669,Gansu,Haishiwan Protestant Management Committee,36.338702,102.86489,1,Protestantism,1993
26670,Gansu,Hutouya Village Mosque Temple Management Committee,36.335082,102.890888,5,Islam,1999
26671,Gansu,Xuanzi Mosque,36.316546,102.917499,5,Islam,1980
26672,Gansu,Yaojie Protestant Church,36.43226,102.87377,1,Protestantism,2000
26673,Gansu,Baman Temple,36.283771,102.984637,3,Buddhism,1994
26674,Gansu,Guanyin Temple,36.16318,103.296616,3,Buddhism,1994
26675,Gansu,Shangen Mosque,36.430006,102.874704,5,Islam,1963
26676,Gansu,Jinhua Yongle Temple,36.1662,103.2797,4,Daoism,1980
26677,Gansu,Hetan Mosque,36.462275,102.864144,5,Islam,1988
26678,Gansu,Siqu Mosque Management Committee,36.462275,102.864144,5,Islam,1986
26679,Gansu,Wushengyi Town Lower Mosque,36.884465,103.167526,5,Islam,1934
26680,Gansu,Mount Xianglu Quanzhen Temple Management Committee,36.708398,103.259899,4,Daoism,2001
26681,Gansu,Yongdeng County Buddhist Association,36.73762,103.26639,30,Buddhism,2004
26682,Gansu,Mount Qinglong Yongning Temple Management Committee,36.737599,103.266334,3,Buddhism,1997
26683,Gansu,Miaoyin Temple Management Committee,36.590078,102.839743,3,Buddhism,1982
26684,Gansu,Heqiaoyi Mosque Management Committee,36.527039,102.880902,5,Islam,1983
26685,Gansu,Haide Temple Management Committee,36.7396,103.25901,3,Buddhism,1990
26686,Gansu,Qili Village Mosque,36.479506,102.859355,5,Islam,1983
26687,Gansu,Maliantan Upper Mosque,36.503186,102.876215,5,Islam,1980
26688,Gansu,Upper Mosque Management Committee,36.73399,103.256946,5,Islam,1985
26689,Gansu,Yongdeng County Daoist Association,36.7376,103.2662,4,Daoism,2004
26690,Gansu,Gada Temple Management Committee,36.590078,102.839743,3,Buddhism,1983
26691,Gansu,Qingliang Temple Buddhist Management Committee,36.432909,103.396539,3,Buddhism,1996
26692,Gansu,Wushengyi Town Upper Mosque,36.884465,103.167526,5,Islam,1934
26693,Gansu,Heqiaoshang Mosque,36.527039,102.880902,5,Islam,1982
26694,Gansu,Tuanjie Mosque,36.527039,102.880902,5,Islam,1983
26695,Gansu,Mount Qingquan Jintai Temple Management Committee,36.715039,103.090022,4,Daoism,2002
26696,Gansu,Gan'en Temple Management Committee,36.454721,103.394196,3,Buddhism,1895
26697,Gansu,Wanshou Temple Management Committee,36.674197,103.298206,3,Buddhism,1998
26698,Gansu,Mount Renshou Management Committee,36.733128,103.262195,4,Daoism,1993
26699,Gansu,Grand Mosque Management Committee,36.73399,103.256946,5,Islam,1928
26700,Gansu,Mount Tonghai Management Committee,36.318725,103.59049,4,Daoism,1993
26701,Gansu,Maliantan Grand Mosque,36.503186,102.876215,5,Islam,1980
26702,Gansu,Hualinping Mosque,35.9959,103.9828,5,Islam,1951
26703,Gansu,Laozu Temple Daoist Association,35.890946,103.930063,4,Daoism,1992
26704,Gansu,Yuzhong County Protestant Three-self Patriotic Movement Committee,35.826901,104.109592,10,Protestantism,1991
26705,Gansu,Yuzhong County Islamic Association,35.843,104.11249,5,Islam,1994
26706,Gansu,Gancaodian Town Mosque Democratic Management Committee,35.7941,104.287,5,Islam,2002
26707,Gansu,Yuzhong County Daoist Association,35.776458,104.057163,4,Daoism,1995
26708,Gansu,Yuzhong County Buddhist Association,35.841494,104.109118,30,Buddhism,1997
26709,Gansu,Jiayuguan City Mosque,39.79541,98.26268,5,Islam,1987
26710,Gansu,Huguo Temple Management Committee,39.797559,98.238046,3,Buddhism,1989
26711,Gansu,Jiayuguan City Protestant Church,39.76593,98.25961,1,Protestantism,1996
26712,Gansu,Jiayuguan City Catholic Democratic Management Committee,39.773,98.2823,20,Catholicism,1999
26713,Gansu,Jiayuguan South Mosque Democratic Management Committee,39.781275,98.29287,5,Islam,1996
26714,Gansu,Jinchuan Grand Mosque Management Committee,38.522835,102.182932,5,Islam,1982
26715,Gansu,Longquan Market Mosque,38.49953,102.17287,5,Islam,1987
26716,Gansu,Jinchang City Protestant Three-self Patriotic Committee,38.522835,102.182932,1,Protestantism,1990
26717,Gansu,Yongyao Road Mosque Management Committee,38.5074,102.1704,5,Islam,1980
26718,Gansu,Jinchang City Islamic Association,38.515403,102.188003,5,Islam,1990
26719,Gansu,Longgangli Mosque,38.494005,102.163193,5,Islam,1995
26720,Gansu,Jinchang City East Grand Mosque Management Committee,38.519821,102.210562,5,Islam,1992
26721,Gansu,Binhe Road Mosque,38.497943,102.178624,5,Islam,1995
26722,Gansu,Erkuang Mosque Management Committee,38.495428,102.190182,5,Islam,1984
26723,Gansu,Yunzhuang Temple,38.108283,102.102628,3,Buddhism,1988
26724,Gansu,Yongchang County Mosque,38.2448,101.97104,5,Islam,1995
26725,Gansu,West Village Church Management Committee,36.547053,104.168342,1,Protestantism,1988
26726,Gansu,Wanfo Temple,36.623694,105.089093,3,Buddhism,1989
26727,Gansu,Changzheng Mosque,36.720602,104.84498,5,Islam,1989
26728,Gansu,Hongshan Temple,36.641965,105.02111,3,Buddhism,1995
26729,Gansu,Jieyun Daoist Temple Management Committee,36.641965,105.02111,4,Daoism,1988
26730,Gansu,North Mount Wudang Daoist Temple Committee,36.791357,104.605557,4,Daoism,2000
26731,Gansu,Dalachi Mosque,36.638101,105.020218,5,Islam,1984
26732,Gansu,Hongluo Temple,36.464436,104.453196,3,Buddhism,1999
26733,Gansu,Xiguan Mosque,36.55626,104.6728,5,Islam,1940
26734,Gansu,City God Temple,36.565638,104.686069,4,Daoism,1980
26735,Gansu,Dongguan Upper Mosque,36.572922,104.702617,5,Islam,1923
26736,Gansu,Lizhuang Mosque,36.558175,104.679413,5,Islam,1984
26737,Gansu,Dongping Temple,36.534708,104.628769,5,Islam,1983
26738,Gansu,Liuchuan Township Church,36.642592,104.455034,1,Protestantism,1996
26739,Gansu,Hongju Temple,36.558175,104.679413,5,Islam,1986
26740,Gansu,Diaozhuang Mosque,36.876032,105.227368,5,Islam,1992
26741,Gansu,Shanyuan Temple,36.561838,104.66354,3,Buddhism,2004
26742,Gansu,Anmen Church,36.561838,104.66354,1,Protestantism,1991
26743,Gansu,Beiwan Church,36.464436,104.453196,1,Protestantism,1991
26744,Gansu,Qingyun Temple,36.377262,104.623261,3,Buddhism,1986
26745,Gansu,Pingbao Church,36.416632,104.403007,1,Protestantism,1993
26746,Gansu,Hejingping East Mosque,36.534708,104.628769,5,Islam,1983
26747,Gansu,Putuo Temple,36.671331,104.738581,3,Buddhism,1983
26748,Gansu,Shengyun Temple,36.986934,105.035163,3,Buddhism,2002
26749,Gansu,Chaoyun Temple,36.461762,104.997854,4,Daoism,1980
26750,Gansu,Dongguan North Mosque,36.572922,104.702617,5,Islam,1944
26751,Gansu,Yuwu Temple,36.681222,104.73474,4,Daoism,2004
26752,Gansu,Mount Fenglong Daoist Temple,36.45244,105.042747,4,Daoism,1986
26753,Gansu,Chaoyun Temple,36.461762,104.997854,3,Buddhism,1992
26754,Gansu,Santan Church,36.686991,104.673482,1,Protestantism,1995
26755,Gansu,Fajie Temple,36.561838,104.66354,4,Daoism,1980
26756,Gansu,Mount Qingliang Construction and Management Association,35.924022,105.214847,3,Buddhism,1989
26757,Gansu,Mount Xiujin Yuanjun Daoist Temple Management Group,34.564,105.548,4,Daoism,1984
26758,Gansu,Huazang Abbey,34.6136,105.4162,3,Buddhism,1986
26759,Gansu,Guanzi Town Protestant Church,34.63112,105.374441,1,Protestantism,1980
26760,Gansu,Liguanwan Mosque Management Committee,34.54387,105.74943,5,Islam,1996
26761,Gansu,Yuandong Temple Buddhist Management Group,34.362451,105.565673,3,Buddhism,1987
26762,Gansu,Chengqu Buddhist Association,34.57972,105.727996,30,Buddhism,1982
26763,Gansu,Hejialin Mosque,34.516574,105.640991,5,Islam,1977
26764,Gansu,Yuyang Temple,34.58872,105.349186,4,Daoism,1960
26765,Gansu,Niangniangba Town Mosque Management Committee,34.3039,105.8264,5,Islam,1981
26766,Gansu,Qincheng District Buddhist Association Lizi Township Management Group,34.2527,105.8934,30,Buddhism,1996
26767,Gansu,Fulong Temple Daoist Management Group,34.5203,105.664937,4,Daoism,1982
26768,Gansu,Wangchuan Town Daoist Management Group,34.226425,105.579833,4,Daoism,1988
26769,Gansu,Tianshui City Daoist Association,34.584417,105.729314,4,Daoism,1996
26770,Gansu,Tianshui City Catholic Patriotic Association,34.58045,105.7374,20,Catholicism,1958
26771,Gansu,Hongtai Mosque Management Committee,34.5828,105.7243,5,Islam,1982
26772,Gansu,Tianshui City Protestant Three-self Patriotic Movement Committee,34.5732,105.7561,10,Protestantism,1990
26773,Gansu,Tianshui Town Protestant Management Group,34.58296,105.7244,1,Protestantism,1996
26774,Gansu,Mount Yujing Xuanmiao Temple,34.541006,105.684384,4,Daoism,2002
26775,Gansu,Xiangshan Temple Daoist Management Group,34.587234,105.728217,4,Daoism,1986
26776,Gansu,Beiguan Mosque,34.5828,105.7243,5,Islam,1981
26777,Gansu,Dianzhen Protestant Church,34.4731,105.7114,1,Protestantism,1996
26778,Gansu,Yuanzhu Temple,34.58296,105.7244,3,Buddhism,1988
26779,Gansu,Hanjiaxiang Protestant Church 　,34.575783,105.715182,1,Protestantism,1990
26780,Gansu,Yuxiang Temple,34.564493,105.548839,4,Daoism,1990
26781,Gansu,Guanyin Temple Buddhist Management Group,34.58454,105.7271,3,Buddhism,1996
26782,Gansu,Bingling Temple,34.58454,105.7271,3,Buddhism,1993
26783,Gansu,Bailian Temple,34.564,105.548,3,Buddhism,1995
26784,Gansu,Huifu Temple,34.58296,105.7244,3,Buddhism,1960
26785,Gansu,Qinzhou District Catholic Patriotic Association,34.58045,105.7374,20,Catholicism,1999
26786,Gansu,Liujiazhuang Mosque Management Committee,34.60731,105.704131,5,Islam,1996
26787,Gansu,Yanfa Temple,34.5416,105.6869,3,Buddhism,1996
26788,Gansu,Wotuo Mosque Management Committee,34.566693,105.649906,5,Islam,1977
26789,Gansu,Fokongqiao Daoist Management Group,34.5626,105.599,4,Daoism,1989
26790,Gansu,Xiaozhuang Mosque,34.4731,105.7114,5,Islam,1920
26791,Gansu,Laojun Temple Democratic Management Committee,34.5551,105.6783,4,Daoism,1984
26792,Gansu,Mount Yunwu Daoist Management Group,34.353491,105.682904,4,Daoism,1982
26793,Gansu,Ruilian Temple Management Committee,34.57972,105.727996,3,Buddhism,2001
26794,Gansu,Beishan Mosque Management Committee,34.5832,105.7242,5,Islam,1989
26795,Gansu,Dayun Temple,34.6136,105.4162,3,Buddhism,1985
26796,Gansu,Wujiashan Mosque Management Committee,34.545184,105.664779,5,Islam,1988
26797,Gansu,Houzhai Mosque,34.5832,105.7242,5,Islam,1978
26798,Gansu,Mount Xiujin Qisheng Temple Daoist Management Group,34.530603,105.70448,4,Daoism,1984
26799,Gansu,Tianshui Buddhist Association,34.58454,105.7271,30,Buddhism,1990
26800,Gansu,Nanwu Temple Management Group,34.569223,105.790949,4,Daoism,1988
26801,Gansu,Hongfa Temple Democratic Management Committee,34.5739,105.9007,3,Buddhism,2001
26802,Gansu,Yangjiashan Church,34.458659,106.141292,1,Protestantism,1982
26803,Gansu,Shenjin Temple,34.329538,106.139324,3,Buddhism,1993
26804,Gansu,Ganquan Town Protestant Church Management Committee,34.447693,105.94171,1,Protestantism,1987
26805,Gansu,Taiping Temple Democratic Management Committee,34.447693,105.94171,3,Buddhism,1980
26806,Gansu,Bailin Temple Democratic Management Committee,34.51561,106.344933,4,Daoism,1985
26807,Gansu,Liulin Temple,34.508753,105.90612,3,Buddhism,1985
26808,Gansu,Beidao District Catholic Patriotic Committee,34.680988,105.658249,20,Catholicism,1980
26809,Gansu,Mapaoquan Catholic Church,34.540616,105.904995,2,Catholicism,1992
26810,Gansu,Yuanjue Temple,34.4911,106.0629,3,Buddhism,1982
26811,Gansu,Dangchuan Township Protestant Church Affairs Management Committee,34.335897,106.140654,1,Protestantism,1997
26812,Gansu,Huaniu Town Mosque Democratic Management Committee,34.564619,105.825468,5,Islam,2002
26813,Gansu,Mapaoquan Mosque,34.540616,105.904995,5,Islam,1962
26814,Gansu,Wujia Village Protestant Church,34.679464,105.658714,1,Protestantism,1997
26815,Gansu,Shenjia Village Protestant Church,34.679464,105.658714,1,Protestantism,1991
26816,Gansu,Weinan Town Protestant Church,34.679464,105.658714,1,Protestantism,1997
26817,Gansu,Shenjia Village Catholic Church,34.679464,105.658714,2,Catholicism,1980
26818,Gansu,Maoan Temple Democratic Management Committee,34.743371,105.734429,3,Buddhism,1985
26819,Gansu,Taishan Temple Zhu Management Committee,34.472289,105.877869,4,Daoism,1970
26820,Gansu,Mount Shengqiao Cien Temple Democratic Management Committee,34.681942,105.592035,3,Buddhism,1982
26821,Gansu,Yanying Temple Artifact Preservation Group,34.703121,105.674686,3,Buddhism,1980
26822,Gansu,Beidao District Mosque,34.55999,105.90612,5,Islam,1992
26823,Gansu,Majiaping Protestant Church,34.679464,105.658714,1,Protestantism,1997
26824,Gansu,Zhangshi Protestant Church,34.679464,105.658714,1,Protestantism,1990
26825,Gansu,Dangchuan Township Mosque Democratic Management Committee,34.335897,106.140654,5,Islam,1995
26826,Gansu,Beidao Protestant Church,34.5739,105.9007,1,Protestantism,1986
26827,Gansu,Wuyang Temple,34.458659,106.141292,4,Daoism,1972
26828,Gansu,Boyang Protestant Church,34.5234,106.0564,1,Protestantism,1996
26829,Gansu,Shifo Township Protestant Democratic Management Group,34.698543,105.706914,1,Protestantism,1985
26830,Gansu,Longshen Temple,34.575071,105.895884,4,Daoism,1997
26831,Gansu,Shifo Temple Democratic Management Committee,34.698543,105.706914,3,Buddhism,1992
26832,Gansu,Yukou Village Protestant Church Management Committee,34.685862,105.730441,1,Protestantism,1995
26833,Gansu,Zaoyang Temple,34.674611,105.645182,4,Daoism,1980
26834,Gansu,Gaojiawan Mosque Democratic Management Committee,34.662219,105.823752,5,Islam,1986
26835,Gansu,Qingya Temple Management Committee,34.712445,106.26026,5,Islam,1983
26836,Gansu,Putaosi Mosque,34.855661,106.223006,5,Islam,1988
26837,Gansu,Chengguan Mosque,34.751537,106.137871,5,Islam,1982
26838,Gansu,Huashi Cliff,34.58683,106.196325,4,Daoism,1911
26839,Gansu,Yaomen Mosque,34.805315,106.290066,5,Islam,1988
26840,Gansu,Xindianzi Mosque Management Committee,34.771004,105.880634,5,Islam,1956
26841,Gansu,Miaoer Mosque,34.83941,106.205974,5,Islam,1988
26842,Gansu,Minor Mount Hua Panggong Abbey Management Committee,34.747364,106.073269,3,Buddhism,1996
26843,Gansu,Puwan Mosque,34.83941,106.205974,5,Islam,1986
26844,Gansu,Yuanxing Temple Management Committee,34.771004,105.880634,3,Buddhism,1931
26845,Gansu,Guowan Mosque,34.881964,106.225391,5,Islam,1991
26846,Gansu,Wangjia Mosque,34.881964,106.225391,5,Islam,1988
26847,Gansu,Liangtou Mosque,34.83941,106.205974,5,Islam,1988
26848,Gansu,Chengguan Protestant Church Management Committee,34.743129,106.137154,1,Protestantism,1982
26849,Gansu,Taiping Temple,34.720507,106.226713,3,Buddhism,2000
26850,Gansu,Yulin Temple Management Committee,34.771004,105.880634,3,Buddhism,1942
26851,Gansu,Maliang Mosque,34.881964,106.225391,5,Islam,1988
26852,Gansu,Faxiang Temple Management Committee,34.71968,106.217583,3,Buddhism,1983
26853,Gansu,Baitianming Temple Management Committee,34.6512,105.8976,4,Daoism,1995
26854,Gansu,Qiwan Mosque,34.881964,106.225391,5,Islam,1991
26855,Gansu,Qingshui County Islamic Association,34.751537,106.137871,5,Islam,1984
26856,Gansu,Longquan Temple Management Committee,34.749107,106.105674,3,Buddhism,2003
26857,Gansu,Nanguan Mosque,34.85484,105.67075,5,Islam,1982
26858,Gansu,Qinan County Protestant Three-self Patriotic Movement Committee,34.864324,105.667869,10,Protestantism,1985
26859,Gansu,Yinmaxiang Mosque,34.85484,105.67075,5,Islam,1980
26860,Gansu,Houtan Protestant Church,34.933552,105.663667,1,Protestantism,1992
26861,Gansu,Ying'en Temple,34.854151,105.674123,3,Buddhism,2000
26862,Gansu,Suancipo Mosque,34.942549,105.881789,5,Islam,1965
26863,Gansu,Nantai Mosque,34.861,105.66993,5,Islam,1985
26864,Gansu,Qin'an County Protestant Church,34.85836,105.66849,1,Protestantism,1985
26865,Gansu,Qin'an County Buddhist Association,34.854151,105.674123,30,Buddhism,1997
26866,Gansu,Kequan Temple,34.8437,105.673596,3,Buddhism,2004
26867,Gansu,Shenxian Stupa Daoist Association,34.919244,105.684102,4,Daoism,1975
26868,Gansu,Qin'an County Catholic Church,34.85484,105.67075,2,Catholicism,1990
26869,Gansu,Majiaju Protestant Church,34.803557,105.408206,1,Protestantism,1949
26870,Gansu,Gangu County Protestant Three-self Patriotic Movement Committee,34.7425,105.3364,10,Protestantism,1982
26871,Gansu,Gangu County Daoist Association,34.754136,105.151796,4,Daoism,1985
26872,Gansu,Gangu County Buddhist Association,34.735544,105.312367,30,Buddhism,1983
26873,Gansu,Gangu County Catholic Patriotic Association,34.741516,105.332152,20,Catholicism,1996
26874,Gansu,Lianhua Temple,34.622478,105.013799,3,Buddhism,1985
26875,Gansu,Cibei Temple,34.598878,104.902477,3,Buddhism,1959
26876,Gansu,Wushan County Daoist Association,34.845597,104.947542,4,Daoism,1978
26877,Gansu,Chengguan Town Protestant Management Association,34.72229,104.88493,10,Protestantism,1978
26878,Gansu,Ciyun Temple,34.593601,104.897767,3,Buddhism,1953
26879,Gansu,Wushan County Buddhist Association,34.728193,104.869811,30,Buddhism,1980
26880,Gansu,Donghua Temple,34.638284,104.978817,3,Buddhism,1970
26881,Gansu,Huayan Temple,34.649843,105.00962,3,Buddhism,1933
26882,Gansu,Luomen Protestant Church,34.75413,105.01885,1,Protestantism,1920
26883,Gansu,Tianzhu Temple Democratic Management Committee,37.87824,102.649964,3,Buddhism,1995
26884,Gansu,Tiancheng Temple,37.944341,102.311378,3,Buddhism,1996
26885,Gansu,Yanshou Temple,37.907488,102.767905,3,Buddhism,1999
26886,Gansu,Wuwei City Protestant Association,37.92988,102.64187,10,Protestantism,2001
26887,Gansu,Qingliang Temple Democratic Management Committee,37.913152,102.722327,3,Buddhism,1988
26888,Gansu,Luoshen Temple,37.931599,102.63521,3,Buddhism,2004
26889,Gansu,Dongguanjie Mosque Democratic Management Committee,37.926346,102.649843,5,Islam,1986
26890,Gansu,Zagou Catholic Church,38.001795,102.39267,2,Catholicism,1993
26891,Gansu,Hengsha Temple Democratic Management Committee,37.962895,102.746487,3,Buddhism,1992
26892,Gansu,Sandun Village Catholic Church,37.739561,102.988227,2,Catholicism,1983
26893,Gansu,Mount Jingangling Fazhuang Temple Management Committee,38.897603,103.689785,3,Buddhism,1996
26894,Gansu,Shengrong Temple,38.62267,103.08819,3,Buddhism,1995
26895,Gansu,Suwu Temple,38.568763,103.105415,4,Daoism,2003
26896,Gansu,Puji Temple Management Committee,37.577955,102.87657,3,Buddhism,1964
26897,Gansu,Zhonghua Shengdan Temple,37.685232,103.086643,2,Catholicism,1993
26898,Gansu,Ganlu Temple Management Committee,37.730088,103.018174,3,Buddhism,1998
26899,Gansu,Gulang County Buddhist Association,37.474384,103.415501,30,Buddhism,1990
26900,Gansu,Longquan Temple Management Committee,37.45694,102.88853,3,Buddhism,1995
26901,Gansu,Tiantang Temple Management Committee,36.945316,102.511117,3,Buddhism,1980
26902,Gansu,Mount Qinglong Temple,39.170261,100.83457,4,Daoism,1975
26903,Gansu,Ganzhou District Islamic Association,38.923,100.4588,5,Islam,1980
26904,Gansu,Zhangye City Protestant Three-self Patriotic Movement Committee,38.93459,100.45795,10,Protestantism,1943
26905,Gansu,Ganzhou District Buddhist Association,38.93003,100.45108,30,Buddhism,1984
26906,Gansu,Dongshan Temple (Guanyin Temple),39.170261,100.83457,3,Buddhism,1995
26907,Gansu,Dongshan Temple (Daxiong Temple),39.170261,100.83457,3,Buddhism,1975
26908,Gansu,Daoxiang Temple Management Committee,38.93807,100.46225,4,Daoism,1987
26909,Gansu,Ganzhou District Catholic Patriotic Association,38.93102,100.45744,20,Catholicism,1989
26910,Gansu,Xiguan Mosque Management Committee,38.43198,100.807028,5,Islam,1987
26911,Gansu,Minle County Daoist Association,38.507805,100.882837,4,Daoism,2000
26912,Gansu,Yangfang Catholic Church Management Committee,38.307821,100.883421,2,Catholicism,1984
26913,Gansu,Yuantong Temple Management Committee,38.649611,100.724156,3,Buddhism,1984
26914,Gansu,Qinglong Temple Management Committee,38.445287,100.610204,3,Buddhism,1993
26915,Gansu,Tongzi Temple Management Committee,38.507805,100.882837,3,Buddhism,1982
26916,Gansu,Shengtian Temple Management Committee,38.4376,100.8033,3,Buddhism,1985
26917,Gansu,Linze County Buddhist Association,39.163612,100.029311,30,Buddhism,1992
26918,Gansu,Gaotai County Buddhist Association,39.2485,99.6443,30,Buddhism,1994
26919,Gansu,Shandan County Catholic Patriotic Association,38.477607,101.384102,20,Catholicism,2000
26920,Gansu,Panshan Catholic Church,38.532261,101.217348,2,Catholicism,1930
26921,Gansu,Shandan County Islamic Association,38.777183,101.090008,5,Islam,1946
26922,Gansu,Mount Dahuang Zhongshan Temple,38.46078,101.194569,3,Buddhism,1984
26923,Gansu,Dafo Temple,38.792691,101.033934,3,Buddhism,1991
26924,Gansu,Qinlong Mosque,35.540649,106.689181,5,Islam,1979
26925,Gansu,Yangzhuang Mosque,35.478623,106.75114,5,Islam,1993
26926,Gansu,Xiaozhuang Mosque,35.423752,106.892789,5,Islam,1986
26927,Gansu,Wangwan Mosque,35.474826,106.770134,5,Islam,1973
26928,Gansu,Xishan Mosque,35.452072,106.664879,5,Islam,1983
26929,Gansu,Yangshan Mosque,35.423752,106.892789,5,Islam,1995
26930,Gansu,Luowan Mosque,35.684103,106.581175,5,Islam,1981
26931,Gansu,Yulonggou Mosque,35.532188,106.688813,5,Islam,1990
26932,Gansu,Liushuwa Mosque,35.3985,106.888646,5,Islam,1983
26933,Gansu,Miaowan Mosque,35.485664,106.725374,5,Islam,1972
26934,Gansu,Beishan Mosque,35.684103,106.581175,5,Islam,1991
26935,Gansu,Guijiazhuang Mosque,35.458218,106.693773,5,Islam,1976
26936,Gansu,Dacha Mosque,35.3985,106.888646,5,Islam,1983
26937,Gansu,Liyuan Mosque,35.395746,106.823726,5,Islam,1984
26938,Gansu,Xiaocha Mosque,35.716609,106.597941,5,Islam,1982
26939,Gansu,Qianwan Mosque,35.684103,106.581175,5,Islam,1982
26940,Gansu,Zhaohe Mosque,35.65502,106.700072,5,Islam,1964
26941,Gansu,Xiashanlangpo Mosque,35.481118,106.692183,5,Islam,1976
26942,Gansu,Haiwan Mosque,35.716609,106.597941,5,Islam,1982
26943,Gansu,Zhangsigou Mosque,35.462553,106.674423,5,Islam,1976
26944,Gansu,South Mosque,35.462353,106.674656,5,Islam,1976
26945,Gansu,Shangfang Mosque,35.593758,106.697382,5,Islam,1979
26946,Gansu,Erji Mosque,35.66552,106.658837,5,Islam,1998
26947,Gansu,Qingliangshan Mosque,35.693683,106.645523,5,Islam,1985
26948,Gansu,Beigou Mosque,35.462553,106.674423,5,Islam,1976
26949,Gansu,West Mosque,35.54117,106.684399,5,Islam,1929
26950,Gansu,Diaochuan Mosque,35.732472,106.505882,5,Islam,1968
26951,Gansu,Tuqiao Mosque,35.352773,106.786699,5,Islam,1984
26952,Gansu,Caijiakelao Mosque,35.405944,106.767536,5,Islam,1984
26953,Gansu,Guijing North Mosque,35.462353,106.674656,5,Islam,1976
26954,Gansu,Hougou Mosque,35.716609,106.597941,5,Islam,1982
26955,Gansu,Laozhuang Mosque,35.431728,106.797866,5,Islam,1984
26956,Gansu,Yushu South Mosque,35.462353,106.674656,5,Islam,1977
26957,Gansu,Shijuzi Mosque,35.640389,106.51897,5,Islam,1965
26958,Gansu,Northeast Women's Mosque,35.53798,106.68996,5,Islam,1980
26959,Gansu,Laozhuanggou Mosque,35.726743,106.569927,5,Islam,1983
26960,Gansu,Xinzhuang Mosque,35.495894,106.662676,5,Islam,1988
26961,Gansu,Balitang Mosque,35.401309,107.104922,5,Islam,1991
26962,Gansu,Yuanpan Mosque,35.626243,106.604618,5,Islam,1982
26963,Gansu,Dawan Mosque,35.348292,106.849166,5,Islam,1985
26964,Gansu,Nan'gou Mosque,35.435315,106.721086,5,Islam,1956
26965,Gansu,Cengjiazhuang Mosque,35.420717,106.818494,5,Islam,1985
26966,Gansu,Youfang Mosque,35.395746,106.823726,5,Islam,1983
26967,Gansu,Gaoliang Mosque,35.684103,106.581175,5,Islam,1982
26968,Gansu,Songshu Mosque,35.423752,106.892789,5,Islam,1984
26969,Gansu,Beifang Mosque,35.623179,106.614685,5,Islam,1982
26970,Gansu,Hejia Mosque,35.597218,106.642664,5,Islam,1983
26971,Gansu,Laosi Mosque,35.462553,106.674423,5,Islam,1976
26972,Gansu,Luduwan Mosque,35.395746,106.823726,5,Islam,1980
26973,Gansu,Yaoshuwan Mosque,35.372432,106.654035,5,Islam,1976
26974,Gansu,Yejiashan Mosque,35.481118,106.692183,5,Islam,1976
26975,Gansu,Yinshan Mosque,35.684103,106.581175,5,Islam,1984
26976,Gansu,Dongjiu Mosque,35.61539,106.620623,5,Islam,1981
26977,Gansu,Daqin Mosque,35.618714,106.670556,5,Islam,1979
26978,Gansu,Changjia Mosque,35.597218,106.642664,5,Islam,1983
26979,Gansu,Taohe Mosque,35.444309,106.7361,5,Islam,1968
26980,Gansu,Mijiawan Mosque,35.485664,106.725374,5,Islam,1958
26981,Gansu,Gaoxiagou Mosque,35.352773,106.786699,5,Islam,1984
26982,Gansu,Kangzhuang Mosque,35.420717,106.818494,5,Islam,1985
26983,Gansu,Baishui Grand Mosque,35.43153,106.995836,5,Islam,1980
26984,Gansu,Xiajing Mosque,35.459843,106.759502,5,Islam,1962
26985,Gansu,Machuan Mosque,35.376182,106.676473,5,Islam,1982
26986,Gansu,Shuiyanggou Mosque,35.348802,106.736552,5,Islam,1992
26987,Gansu,Xiafang Mosque,35.593758,106.697382,5,Islam,1978
26988,Gansu,Donggou Qubba Mosque,35.634714,106.520545,5,Islam,1960
26989,Gansu,Zhongju Mosque,35.726743,106.569927,5,Islam,1995
26990,Gansu,Goushang Mosque,35.66552,106.658837,5,Islam,1982
26991,Gansu,Nanwan Mosque,35.709769,106.623641,5,Islam,1982
26992,Gansu,Yangwa Mosque,35.684103,106.581175,5,Islam,1984
26993,Gansu,Qianliang Mosque,35.287805,106.81107,5,Islam,1972
26994,Gansu,Sidaogou Mosque,35.462553,106.674423,5,Islam,1976
26995,Gansu,Liushugou Mosque,35.489634,106.700926,5,Islam,1976
26996,Gansu,Qianwan Mosque,35.462553,106.674423,5,Islam,1976
26997,Gansu,Xiayang Mosque,35.459843,106.759502,5,Islam,1956
26998,Gansu,Shangtan Mosque,35.693683,106.645523,5,Islam,1982
26999,Gansu,Shangyang Mosque,35.444309,106.7361,5,Islam,1952
27000,Gansu,Banqiao Mosque,35.402484,106.795589,5,Islam,1984
27001,Gansu,Tugudui Mosque,35.287805,106.81107,5,Islam,1972
27002,Gansu,Shuangqiao Mosque,35.523155,106.712205,5,Islam,1970
27003,Gansu,Yaowan Mosque,35.66161,106.54725,5,Islam,1982
27004,Gansu,Bijia Mosque,35.462353,106.674656,5,Islam,1976
27005,Gansu,Zhaizi Village Mosque,35.650752,106.717039,5,Islam,1998
27006,Gansu,Xiaochen Village Mosque,35.565445,106.735859,5,Islam,1979
27007,Gansu,Xiwan Mosque,35.684103,106.581175,5,Islam,1994
27008,Gansu,Linjiasi Mosque,35.352773,106.786699,5,Islam,1982
27009,Gansu,Zhijiawan Mosque,35.395746,106.823726,5,Islam,1981
27010,Gansu,Hougou Mosque,35.474826,106.770134,5,Islam,1974
27011,Gansu,Xujiawan Mosque,35.462353,106.674656,5,Islam,1982
27012,Gansu,Dongjie Mosque,35.640389,106.51897,5,Islam,1968
27013,Gansu,Xifang Mosque,35.60024,106.634508,5,Islam,1982
27014,Gansu,Shangbao Mosque,35.685555,106.483497,5,Islam,1968
27015,Gansu,Qianzhuang Mosque,35.458218,106.693773,5,Islam,1976
27016,Gansu,Xiaoqin Village Mosque,35.593758,106.697382,5,Islam,1979
27017,Gansu,Qingjie Mosque,35.471637,106.856132,5,Islam,1977
27018,Gansu,Gounan Mosque,35.452072,106.664879,5,Islam,1985
27019,Gansu,Yangpo Mosque,35.462353,106.674656,5,Islam,1996
27020,Gansu,Gaowan Mosque,35.684103,106.581175,5,Islam,1982
27021,Gansu,Zhaoyuan Mosque,35.395746,106.823726,5,Islam,1981
27022,Gansu,Luobuwan Mosque,35.395746,106.823726,5,Islam,1984
27023,Gansu,Guihua Mosque,35.395746,106.823726,5,Islam,1985
27024,Gansu,Wupo Mosque,35.481118,106.692183,5,Islam,1976
27025,Gansu,Mengjiawan Mosque,35.685555,106.483497,5,Islam,1962
27026,Gansu,Xuling Mosque,35.287805,106.81107,5,Islam,1975
27027,Gansu,Wangjiashan Mosque,35.552442,106.813031,5,Islam,1976
27028,Gansu,Baiyanggou Mosque,35.381357,106.722015,5,Islam,1986
27029,Gansu,Shanghai Mosque,35.402484,106.795589,5,Islam,1984
27030,Gansu,Lizizhuang Mosque,35.395746,106.823726,5,Islam,1974
27031,Gansu,Xiyang Village Mosque,35.684103,106.581175,5,Islam,1982
27032,Gansu,Haijiawan Mosque,35.348802,106.736552,5,Islam,1994
27033,Gansu,Sanshu Village Mosque,35.61539,106.620623,5,Islam,1981
27034,Gansu,Dongzhe Mosque,35.425626,106.751636,5,Islam,1985
27035,Gansu,Changwan Village Mosque,35.462553,106.674423,5,Islam,1979
27036,Gansu,Northwest Mosque,35.540649,106.689181,5,Islam,1984
27037,Gansu,Yushu North Mosque,35.462353,106.674656,5,Islam,1977
27038,Gansu,Laozhuang Mosque,35.485664,106.725374,5,Islam,1965
27039,Gansu,Yaoxian Mosque,35.709769,106.623641,5,Islam,1982
27040,Gansu,Miziwan Mosque,35.726743,106.569927,5,Islam,1982
27041,Gansu,Xinsiwan Mosque,35.444309,106.7361,5,Islam,1965
27042,Gansu,Baipo Mosque,35.50237,106.715177,5,Islam,1976
27043,Gansu,Wushushan Mosque,35.418366,106.794745,5,Islam,2004
27044,Gansu,Shuiquanwan Mosque,35.726743,106.569927,5,Islam,1988
27045,Gansu,Zhaowan Mosque,35.444309,106.7361,5,Islam,1968
27046,Gansu,Liujia Mosque,35.431728,106.797866,5,Islam,1984
27047,Gansu,Gouling Mosque,35.395701,106.857354,5,Islam,1980
27048,Gansu,Shuanggou Mosque,35.462553,106.674423,5,Islam,1981
27049,Gansu,Houshan Mosque,35.65502,106.700072,5,Islam,1964
27050,Gansu,Miaogoumen Mosque,35.474826,106.770134,5,Islam,1962
27051,Gansu,Guohe Village Mosque,35.65502,106.700072,5,Islam,1984
27052,Gansu,Laozhuangwa Mosque,35.3985,106.888646,5,Islam,1984
27053,Gansu,Shuiquan Mosque,35.376182,106.676473,5,Islam,1988
27054,Gansu,Bojiwan Mosque,35.432014,106.786394,5,Islam,1984
27055,Gansu,Liujiahe Mosque,35.402484,106.795589,5,Islam,1983
27056,Gansu,Weijiawan Mosque,35.395746,106.823726,5,Islam,1984
27057,Gansu,Xifang Mosque,35.65502,106.700072,5,Islam,1990
27058,Gansu,Muguawan Mosque,35.485664,106.725374,5,Islam,1958
27059,Gansu,Zhangzhuang Mosque,35.565445,106.735859,5,Islam,1983
27060,Gansu,Xinghezhuang Mosque,35.542629,106.674835,5,Islam,1981
27061,Gansu,Caili Mosque,35.462553,106.674423,5,Islam,1976
27062,Gansu,Xiashilitan Mosque,35.65502,106.700072,5,Islam,1980
27063,Gansu,Tuojia Mosque,35.432014,106.786394,5,Islam,1984
27064,Gansu,Chengxi Road Mosque,35.5397,106.7061,5,Islam,1998
27065,Gansu,Dongfang Mosque,35.65502,106.700072,5,Islam,1990
27066,Gansu,Dongshan Mosque,35.444309,106.7361,5,Islam,1958
27067,Gansu,Houshan Mosque,35.684103,106.581175,5,Islam,1982
27068,Gansu,Zhangzhuang Mosque,35.405944,106.767536,5,Islam,1984
27069,Gansu,Hedong Mosque,35.419022,106.66215,5,Islam,1999
27070,Gansu,Kongtong District North Grand Mosque,35.4944,106.7964,5,Islam,1917
27071,Gansu,Qingshuiling Mosque,35.405944,106.767536,5,Islam,1984
27072,Gansu,Xiadongshan Mosque,35.427906,106.683497,5,Islam,1976
27073,Gansu,Qijiawan Mosque,35.395746,106.823726,5,Islam,1980
27074,Gansu,Dazhai Mosque,35.395701,106.857354,5,Islam,1982
27075,Gansu,Xijiu Mosque,35.626243,106.604618,5,Islam,1981
27076,Gansu,Goubei Mosque,35.65502,106.700072,5,Islam,1987
27077,Gansu,Fengwan Mosque,35.478623,106.75114,5,Islam,1982
27078,Gansu,Wanwan Mosque,35.423752,106.892789,5,Islam,1985
27079,Gansu,Xiaxia Mosque,35.459843,106.759502,5,Islam,1972
27080,Gansu,Guijing Village Central Mosque,35.462353,106.674656,5,Islam,1976
27081,Gansu,Liaojiazhuang Mosque,35.513508,106.735111,5,Islam,1988
27082,Gansu,Hanwa Mosque,35.684103,106.581175,5,Islam,1984
27083,Gansu,Hongzhaobigou Mosque,35.521631,106.693921,5,Islam,1984
27084,Gansu,Liumiao Mosque,35.616728,106.65376,5,Islam,1981
27085,Gansu,Liumiao Mosque,35.66552,106.658837,5,Islam,1982
27086,Gansu,Qingming Village Mosque #2,35.686394,106.598279,5,Islam,1982
27087,Gansu,Anhe Village Mosque,35.709769,106.623641,5,Islam,1982
27088,Gansu,Liangxi Mosque,35.60024,106.634508,5,Islam,1981
27089,Gansu,Xijiao Mosque,35.5181,106.6218,5,Islam,2002
27090,Gansu,Tonghe Mosque,35.684103,106.581175,5,Islam,1984
27091,Gansu,Kongtong District Protestant Three-self Patriotic Movement Committee,35.537149,106.681895,10,Protestantism,1983
27092,Gansu,Liugou Mosque,35.402484,106.795589,5,Islam,1985
27093,Gansu,Xiahai Mosque,35.402484,106.795589,5,Islam,1984
27094,Gansu,Zhongying Mosque,35.675442,106.633175,5,Islam,1982
27095,Gansu,Dougouwa Mosque,35.676043,106.552446,5,Islam,1982
27096,Gansu,Liushuwo Mosque,35.686394,106.598279,5,Islam,1987
27097,Gansu,Qujiagou Mosque,35.474826,106.770134,5,Islam,1974
27098,Gansu,Qilidian Mosque,35.523155,106.712205,5,Islam,1972
27099,Gansu,Banpo Mosque,35.348292,106.849166,5,Islam,1984
27100,Gansu,Renjiazhuang Mosque,35.513508,106.735111,5,Islam,1992
27101,Gansu,Dongfang Mosque,35.65502,106.700072,5,Islam,1984
27102,Gansu,Yaoxian Mosque,35.684103,106.581175,5,Islam,1988
27103,Gansu,Maijia Mosque,35.462553,106.674423,5,Islam,1976
27104,Gansu,Nanwan Mosque,35.684103,106.581175,5,Islam,1982
27105,Gansu,Wangping Mosque,35.513508,106.735111,5,Islam,1981
27106,Gansu,Damiaogou Mosque,35.459843,106.759502,5,Islam,1974
27107,Gansu,Kongtong District Mosque,35.542629,106.674835,5,Islam,1985
27108,Gansu,Dongjiao Mosque,35.518515,106.737846,5,Islam,2000
27109,Gansu,Shangshanlangpo Mosque,35.481118,106.692183,5,Islam,1976
27110,Gansu,Nanwan Mosque,35.425626,106.751636,5,Islam,1985
27111,Gansu,Zhongjiawan Mosque,35.431728,106.797866,5,Islam,1984
27112,Gansu,Tangwan Mosque,35.684103,106.581175,5,Islam,1985
27113,Gansu,Gaozhai Village Mosque,35.709947,106.690534,5,Islam,1982
27114,Gansu,Sanshuzhuang Mosque,35.435315,106.721086,5,Islam,1962
27115,Gansu,Zhongzhuang Mosque,35.417983,106.788338,5,Islam,2004
27116,Gansu,Wangdian Village Mosque,35.348802,106.736552,5,Islam,1989
27117,Gansu,Xiacai Mosque,35.675442,106.633175,5,Islam,1995
27118,Gansu,Shanghongzhuang Mosque,35.381357,106.722015,5,Islam,1976
27119,Gansu,Miaogou Mosque,35.402484,106.795589,5,Islam,1984
27120,Gansu,Houzhuang Mosque,35.458218,106.693773,5,Islam,1976
27121,Gansu,Xiaojiegou Mosque,35.640389,106.51897,5,Islam,1963
27122,Gansu,Hanwan Mosque,35.557556,106.761855,5,Islam,1979
27123,Gansu,Lanhe Mosque,35.65502,106.700072,5,Islam,1964
27124,Gansu,Shangdongshan Mosque,35.427906,106.683497,5,Islam,1976
27125,Gansu,Gaoping Mosque,35.535353,106.689483,5,Islam,1991
27126,Gansu,Wajiao Mosque,35.557556,106.761855,5,Islam,1988
27127,Gansu,Xiamen Village Mosque,35.462553,106.674423,5,Islam,1976
27128,Gansu,Xianjiawan Mosque,35.462553,106.674423,5,Islam,1976
27129,Gansu,Huangjia Mosque,35.432014,106.786394,5,Islam,1984
27130,Gansu,Xinsi Mosque,35.458218,106.693773,5,Islam,1976
27131,Gansu,Duanqiao Mosque,35.395746,106.823726,5,Islam,1984
27132,Gansu,Luogou Mosque,35.557556,106.761855,5,Islam,1984
27133,Gansu,Xifang Mosque,35.693683,106.645523,5,Islam,1989
27134,Gansu,Jijiagou Mosque,35.65502,106.700072,5,Islam,1961
27135,Gansu,Jiehe Mosque,35.613485,106.569498,5,Islam,1963
27136,Gansu,Dongyang Mosque,35.640432,106.666898,5,Islam,1981
27137,Gansu,Yangfeng Mosque,35.65502,106.700072,5,Islam,1995
27138,Gansu,Beifang Mosque,35.693683,106.645523,5,Islam,1991
27139,Gansu,Kongtong Catholic Church,35.53993,106.682354,2,Catholicism,1985
27140,Gansu,Yangzhuang Mosque,35.352773,106.786699,5,Islam,1984
27141,Gansu,Dongtai Mosque,35.419022,106.66215,5,Islam,1952
27142,Gansu,Wangge Mosque,35.459843,106.759502,5,Islam,1964
27143,Gansu,Zhongzhou Mosque,35.5409,106.7007,5,Islam,2001
27144,Gansu,Baicaopian Mosque,35.427906,106.683497,5,Islam,1976
27145,Gansu,Chenjiagou Mosque,35.675442,106.633175,5,Islam,1994
27146,Gansu,Shangwu Mosque,35.675442,106.633175,5,Islam,1982
27147,Gansu,Suojia Mosque,35.425626,106.751636,5,Islam,1984
27148,Gansu,Liwa Mosque,35.423752,106.892789,5,Islam,1997
27149,Gansu,Qiaodazhuang Mosque,35.287805,106.81107,5,Islam,1980
27150,Gansu,Sujia Mosque,35.623179,106.614685,5,Islam,1981
27151,Gansu,Xinyonghetan Mosque,35.41523,107.048034,5,Islam,1980
27152,Gansu,Lanjiawan Mosque,35.481118,106.692183,5,Islam,1976
27153,Gansu,Niujiashan Mosque,35.552442,106.813031,5,Islam,1976
27154,Gansu,Fengjia Mosque,35.489634,106.700926,5,Islam,1976
27155,Gansu,Mashan Village Mosque,35.462353,106.674656,5,Islam,1978
27156,Gansu,Shiju Mosque,35.462553,106.674423,5,Islam,1976
27157,Gansu,Xiahongzhuang Mosque,35.381357,106.722015,5,Islam,1976
27158,Gansu,Shangcai Mosque,35.684103,106.581175,5,Islam,1982
27159,Gansu,Kongtong District East Grand Women's Mosque,35.54117,106.684399,5,Islam,1998
27160,Gansu,Xinzhuangwan Mosque,35.485664,106.725374,5,Islam,1968
27161,Gansu,Goumen Mosque,35.684103,106.581175,5,Islam,1982
27162,Gansu,Lijiaju Mosque,35.425626,106.751636,5,Islam,1984
27163,Gansu,Diaodiaochuan Mosque,35.732472,106.505882,5,Islam,1964
27164,Gansu,Baimiao Mosque,35.585284,106.714166,5,Islam,1979
27165,Gansu,Shayuan Mosque,35.61539,106.620623,5,Islam,1981
27166,Gansu,Yanwan Village Mosque,35.65502,106.700072,5,Islam,1980
27167,Gansu,Shankou Mosque,35.462353,106.674656,5,Islam,1983
27168,Gansu,Tongju Mosque,35.423752,106.892789,5,Islam,1984
27169,Gansu,Huwan Mosque,35.66161,106.54725,5,Islam,1982
27170,Gansu,Guzhuangliang Mosque,35.444309,106.7361,5,Islam,1952
27171,Gansu,Goumen Mosque,35.726743,106.569927,5,Islam,1994
27172,Gansu,Zhamuwan Mosque,35.684103,106.581175,5,Islam,1982
27173,Gansu,Yangshan Mosque,35.65502,106.700072,5,Islam,1990
27174,Gansu,Zaozhuang Mosque,35.474826,106.770134,5,Islam,1982
27175,Gansu,Jiuziping Mosque,35.287805,106.81107,5,Islam,1974
27176,Gansu,Dongguan Mosque,35.532874,106.697702,5,Islam,1982
27177,Gansu,Mujia Mosque,35.395746,106.823726,5,Islam,1983
27178,Gansu,Shangli Mosque,35.557556,106.761855,5,Islam,1987
27179,Gansu,Goukou Mosque,35.458218,106.693773,5,Islam,1976
27180,Gansu,Baijiashan Mosque,35.410332,106.627943,5,Islam,1976
27181,Gansu,Gaozhuang Mosque,35.4815,106.673116,5,Islam,1975
27182,Gansu,Liangdong Mosque,35.597218,106.642664,5,Islam,1981
27183,Gansu,Dongzhuang Mosque,35.66161,106.54725,5,Islam,1981
27184,Gansu,Xiaochawa Mosque,35.3985,106.888646,5,Islam,1983
27185,Gansu,Northeast Mosque,35.53798,106.68996,5,Islam,1980
27186,Gansu,Dujiagou Mosque,35.541943,106.748422,5,Islam,1982
27187,Gansu,Mujia Village Mosque,35.417983,106.788338,5,Islam,2004
27188,Gansu,Tangzhuang Mosque,35.462353,106.674656,5,Islam,1976
27189,Gansu,Zhongzhuang Mosque,35.458218,106.693773,5,Islam,1976
27190,Gansu,Luotuoxiang Mosque,35.423752,106.892789,5,Islam,1985
27191,Gansu,Kongtong District East Grand Mosque,35.54117,106.684399,5,Islam,1980
27192,Gansu,Shizi Mosque,35.452072,106.664879,5,Islam,1990
27193,Gansu,Lüping Mosque,35.53568,106.68954,5,Islam,1989
27194,Gansu,Shilipu Mosque,35.41523,107.048034,5,Islam,1990
27195,Gansu,Xingfu Mosque,35.43153,106.995836,5,Islam,1988
27196,Gansu,Upper Mosque Management Committee,35.53563,106.6896,5,Islam,1982
27197,Gansu,Jishan Village Mosque,35.65502,106.700072,5,Islam,1956
27198,Gansu,Yuantong Temple,35.528006,106.679479,3,Buddhism,1990
27199,Gansu,Jinghe Road Mosque,35.540649,106.689181,5,Islam,1996
27200,Gansu,Qianshan Mosque,35.675442,106.633175,5,Islam,1996
27201,Gansu,Nanfang Mosque,35.693683,106.645523,5,Islam,1991
27202,Gansu,Wangmu Daoist Temple,35.343243,107.367125,4,Daoism,1995
27203,Gansu,Wang Village Protestant Church,35.368288,107.207579,1,Protestantism,1995
27204,Gansu,Guanjialin Mosque,35.313499,107.391861,5,Islam,1995
27205,Gansu,Jingchuan County Protestant Three-self Patriotic Movement Committee,35.332653,107.367657,10,Protestantism,1995
27206,Gansu,Hedao Protestant Church,35.408064,107.293356,1,Protestantism,1995
27207,Gansu,Zhujiawan Mosque,35.313499,107.391861,5,Islam,1995
27208,Gansu,Yaodian Town Protestant Church,35.259456,107.673888,1,Protestantism,1995
27209,Gansu,Yudu Protestant Church,35.452906,107.309506,1,Protestantism,1995
27210,Gansu,Mount Yangwa Mosque,35.278761,107.348109,5,Islam,1995
27211,Gansu,Hezhigou Mosque,35.320865,107.367085,5,Islam,1995
27212,Gansu,Gaoping Town Protestant Church,35.296252,107.534381,1,Protestantism,1995
27213,Gansu,Wanli Mosque,35.343243,107.367125,5,Islam,1999
27214,Gansu,Libao Protestant Church,35.463904,107.562855,1,Protestantism,1995
27215,Gansu,Wangmu Daoist Temple,35.331203,107.349752,4,Daoism,1995
27216,Gansu,Jingchuan County Catholic Patriotic Committee,35.452906,107.309506,20,Catholicism,1995
27217,Gansu,Neifeng Protestant Church,35.305466,107.296558,1,Protestantism,1995
27218,Gansu,Zhaiziwa Mosque,35.293568,107.365784,5,Islam,1995
27219,Gansu,Yeling Mosque Management Committee,34.974417,107.31646,5,Islam,1990
27220,Gansu,Dianling Mosque,35.325546,106.825904,5,Islam,1983
27221,Gansu,Mayingzi Mosque,35.325546,106.825904,5,Islam,1982
27222,Gansu,Chicheng Mosque,35.156904,106.96922,5,Islam,1980
27223,Gansu,Guanliang Mosque,35.343241,106.621586,5,Islam,1976
27224,Gansu,Yaowang Cavern Daoist Management Committee,35.216285,106.647991,4,Daoism,1983
27225,Gansu,Hua'nan Mosque,35.214503,106.658513,5,Islam,1886
27226,Gansu,Liudian South Mosque,35.229328,106.465797,5,Islam,1919
27227,Gansu,Maxia Mosque,35.239079,106.49801,5,Islam,1932
27228,Gansu,Yuexian Mosque,35.225815,106.799511,5,Islam,1926
27229,Gansu,Tanjiaping Mosque,35.114728,106.707927,5,Islam,1988
27230,Gansu,Beiyangwa Mosque,35.310277,106.487674,5,Islam,1986
27231,Gansu,Qianfeng Mosque,35.22504,106.754246,5,Islam,1983
27232,Gansu,Liangshigou Mosque,35.195791,106.649307,5,Islam,1932
27233,Gansu,Maliantan Mosque,35.301416,106.489555,5,Islam,1981
27234,Gansu,Liudian North Mosque,35.229328,106.465797,5,Islam,1887
27235,Gansu,Jijiahe Mosque,35.127225,106.841594,5,Islam,1982
27236,Gansu,Pangmo Mosque,35.229139,106.637056,5,Islam,1889
27237,Gansu,Wan Buddhist Temple,35.132269,106.80858,3,Buddhism,1906
27238,Gansu,Cedi Town Mosque,35.312545,106.616244,5,Islam,1938
27239,Gansu,Donghua Town East Grand Mosque,35.214503,106.658513,5,Islam,1859
27240,Gansu,Yinwan Mosque,35.312545,106.616244,5,Islam,1995
27241,Gansu,Liuhe Mosque,35.301416,106.489555,5,Islam,1978
27242,Gansu,Ankou East Mosque,35.222584,106.79928,5,Islam,1920
27243,Gansu,Wangjiasi Mosque,35.132269,106.80858,5,Islam,1992
27244,Gansu,Dongchuan Mosque,35.214503,106.658513,5,Islam,1927
27245,Gansu,Donghua Town South Mosque,35.214503,106.658513,5,Islam,1886
27246,Gansu,Yangqian Mosque,35.310277,106.487674,5,Islam,1994
27247,Gansu,Dongjie Mosque,35.284221,106.492571,5,Islam,1978
27248,Gansu,Jiaolong Temple,35.304696,106.614434,3,Buddhism,2004
27249,Gansu,Luomasi Mosque,35.272206,106.512123,5,Islam,1900
27250,Gansu,Hejiashan Mosque,35.317146,106.48953,5,Islam,1979
27251,Gansu,Donghua Town Catholic Church,35.216285,106.647991,2,Catholicism,1930
27252,Gansu,Yinchuan Mosque,35.272206,106.512123,5,Islam,1989
27253,Gansu,Sanxing Mosque,35.242724,106.761542,5,Islam,1981
27254,Gansu,Wumo Mosque,35.236489,106.62331,5,Islam,1952
27255,Gansu,Shenyu Mosque,35.132269,106.80858,5,Islam,1906
27256,Gansu,Yanxia Mosque,35.2511,106.663401,5,Islam,1940
27257,Gansu,Donghua Town North Grand Mosque,35.214503,106.658513,5,Islam,1900
27258,Gansu,Yangan Mosque,35.217263,106.729417,5,Islam,1953
27259,Gansu,Ankou Mosque,35.222584,106.79928,5,Islam,1889
27260,Gansu,Tian'erha Mosque,35.341642,106.505042,5,Islam,1955
27261,Gansu,Ankou Town Protestant Church,35.222584,106.79928,1,Protestantism,1934
27262,Gansu,Xiaguan Mosque,35.122692,106.757878,5,Islam,1978
27263,Gansu,Zhongguan Mosque,35.229139,106.637056,5,Islam,1952
27264,Gansu,Gaozhuang Mosque,35.214713,106.219755,5,Islam,1986
27265,Gansu,Yezhao Village Mosque Management Committee,35.343468,106.127015,5,Islam,1958
27266,Gansu,Chachagou Mosque,35.191043,106.2515,5,Islam,1995
27267,Gansu,Guanshan Yunya Temple,35.186725,106.312085,3,Buddhism,1982
27268,Gansu,Dianxia Mosque,35.185247,106.346299,5,Islam,1982
27269,Gansu,Dianzi Mosque Management Committee,35.481613,105.997431,5,Islam,1996
27270,Gansu,Zhanyuan Mosque Committee,35.522829,105.729077,5,Islam,1943
27271,Gansu,Jiuquan City Mosque Management Committee,39.74599,98.52588,5,Islam,1917
27272,Gansu,Dafazhuang Temple,39.76404,98.504027,3,Buddhism,1995
27273,Gansu,Jiuquan City Protestant Three-self Patriotic Committee,39.745325,98.497917,10,Protestantism,1989
27274,Gansu,Jinta County Daoist Association,40.03324,99.01966,4,Daoism,2000
27275,Gansu,Tayuan Temple Buddhist Association,39.968573,98.916749,30,Buddhism,1986
27276,Gansu,Mount Wulan Daoist Temple,40.51599,95.79288,4,Daoism,1980
27277,Gansu,Anxi County Islamic Association,40.5161,95.784,5,Islam,2003
27278,Gansu,Anning Temple,40.5161,95.784,3,Buddhism,1995
27279,Gansu,Anxi County Buddhist Association,40.5161,95.784,30,Buddhism,1996
27280,Gansu,Dangchengwan Temple Management Committee,39.51329,94.87694,3,Buddhism,1989
27281,Gansu,Ekesai County Islamic Association,39.633939,94.340312,5,Islam,1983
27282,Gansu,Nanping Mosque,39.8048,97.5568,5,Islam,1995
27283,Gansu,Village #4 Group #1 Mosque,40.2563,97.7081,5,Islam,1997
27284,Gansu,Shaguoliang Mosque,40.2563,97.7081,5,Islam,1997
27285,Gansu,Village ＃4 Group #4 Mosque,40.2563,97.7081,5,Islam,1997
27286,Gansu,Village #4 Group #2 Mosque,40.2563,97.7081,5,Islam,1997
27287,Gansu,Village #3 Group #3 Mosque,40.2463,97.7035,5,Islam,1993
27288,Gansu,Village #1 Grand Mosque,40.2605,97.7052,5,Islam,1997
27289,Gansu,Village #3 Group #1 Mosque,40.2463,97.7035,5,Islam,1997
27290,Gansu,Village #4 Group #7 Mosque,40.2563,97.7081,5,Islam,1997
27291,Gansu,Village #3 Group #2 Mosque,40.2463,97.7035,5,Islam,1997
27292,Gansu,Xinshiqu Protestant Church Management Committee,40.28807,97.0291,1,Protestantism,1994
27293,Gansu,Village #2 Group #6 Mosque,40.2605,97.7052,5,Islam,1997
27294,Gansu,Village #3 Group #4 Mosque,40.2463,97.7035,5,Islam,1997
27295,Gansu,Subei Mongolian Autonomous County Buddhist Association,40.1048,94.674,30,Buddhism,1993
27296,Gansu,Dunhuang City Buddhist Association,40.096968,94.666527,30,Buddhism,1986
27297,Gansu,Dunhuang City Islamic Association,40.104091,94.672941,5,Islam,1982
27298,Gansu,Dunhuang City Daoist Association,40.13871,94.63958,4,Daoism,1998
27299,Gansu,Xifeng Mosque,35.73308,107.6302,5,Islam,1994
27300,Gansu,Qingcheng County Catholic Patriotic Committee,36.172526,107.711796,20,Catholicism,1985
27301,Gansu,Baitiaozichuan Mosque,36.800497,106.664468,5,Islam,1984
27302,Gansu,Longjuzi Mosque,35.446183,108.492161,5,Islam,1978
27303,Gansu,Xiqu Mosque,35.370788,108.51464,5,Islam,1982
27304,Gansu,Huaping Mosque Management Committee,35.387846,104.500336,5,Islam,1979
27305,Gansu,Yangjiatai Mosque Management Committee,35.387846,104.500336,5,Islam,1970
27306,Gansu,Shaojiacha Mosque,35.400384,104.576718,5,Islam,1963
27307,Gansu,Dazhuang Mosque Management Committee,35.426836,104.514583,5,Islam,1964
27308,Gansu,Mujiagou Mosque Committee,35.426836,104.514583,5,Islam,1956
27309,Gansu,Quanwan Mosque Management Committee,35.359254,104.518903,5,Islam,1958
27310,Gansu,Shijiazhuang Mosque Management Committee,35.426836,104.514583,5,Islam,1977
27311,Gansu,Wangjiadazhuang Mosque Management Committee,35.367106,104.491883,5,Islam,1907
27312,Gansu,Hongbaozi Mosque Management Committee,35.600447,104.545062,5,Islam,1963
27313,Gansu,Maliantan Mosque Management Committee,35.413152,104.534478,5,Islam,1982
27314,Gansu,Shangshapo Mosque Management Committee,35.426836,104.514583,5,Islam,1974
27315,Gansu,Qingyan Temple Management Committee,35.419938,104.900052,3,Buddhism,1989
27316,Gansu,Weijiashan Mosque Management Committee,35.396199,104.437978,5,Islam,1980
27317,Gansu,Haodizhang Mosque,35.430612,104.672913,5,Islam,1980
27318,Gansu,Xiashuichakou Mosque Management Committee,35.413152,104.534478,5,Islam,1953
27319,Gansu,Anding District Islamic Association,35.426836,104.514583,5,Islam,1927
27320,Gansu,Dongwan Mosque Management Committee,35.426836,104.514583,5,Islam,1979
27321,Gansu,Hanshuicha Mosque,35.464445,104.595946,5,Islam,1979
27322,Gansu,Xiangquan Town Grand Mosque Management Committee,35.426836,104.514583,5,Islam,1947
27323,Gansu,Mayaowan Mosque Management Committee,35.426836,104.514583,5,Islam,1910
27324,Gansu,Chenjiawa Mosque Management Committee,35.426836,104.514583,5,Islam,1964
27325,Gansu,Huapingju Mosque Management Committee,35.387846,104.500336,5,Islam,1982
27326,Gansu,Shangzhuang Mosque,35.400384,104.576718,5,Islam,1972
27327,Gansu,Shangshuichakou Mosque Management Committee,35.413152,104.534478,5,Islam,1980
27328,Gansu,Qinggangcha Mosque Management Committee,35.39856,104.474573,5,Islam,1978
27329,Gansu,Tongwei County Buddhist Association,35.2067,105.252,30,Buddhism,1992
27330,Gansu,Nanshan Guandi Temple,34.996383,104.63343,4,Daoism,1996
27331,Gansu,Mount Renshou Shifang Temple,35.00111,104.633367,3,Buddhism,1997
27332,Gansu,Guang Buddhist Temple,35.08238,104.433823,3,Buddhism,1997
27333,Gansu,Wolong Temple,34.926562,104.422642,3,Buddhism,1997
27334,Gansu,Guandi Temple,35.08238,104.433823,4,Daoism,1999
27335,Gansu,Chunjiaxiang Protestant Church,35.36215,104.811304,1,Protestantism,1996
27336,Gansu,Mount Renshou Sanqing Temple,35.00111,104.633367,4,Daoism,1997
27337,Gansu,Dongjiasi Catholic Church,34.947813,104.482212,2,Catholicism,1996
27338,Gansu,Jiagong Temple (Zushi Temple),34.985732,104.662737,4,Daoism,1996
27339,Gansu,Wangjia Cavern Zushi Temple,34.992246,104.667965,4,Daoism,1997
27340,Gansu,Jingjiaqiao Catholic Church,35.00031,104.64469,2,Catholicism,1996
27341,Gansu,Tuanjie Mosque,35.008979,104.648735,5,Islam,1996
27342,Gansu,Mahe Mosque,35.369631,104.609428,5,Islam,1996
27343,Gansu,Tong'an Xianshan Temple,35.271883,104.649442,3,Buddhism,1999
27344,Gansu,Xingfu Temple,34.8842,104.7232,3,Buddhism,1999
27345,Gansu,Faguo Temple,34.947955,104.729595,3,Buddhism,1996
27346,Gansu,Śākyamuni Temple,34.987565,104.649185,3,Buddhism,1999
27347,Gansu,Donglin Temple,35.000063,104.661654,3,Buddhism,1997
27348,Gansu,Sansheng Temple,35.0589,104.6756,3,Buddhism,1999
27349,Gansu,Cilin Temple,35.24043,104.567399,3,Buddhism,1999
27350,Gansu,Yushi Temple,35.00111,104.633367,4,Daoism,1996
27351,Gansu,Xiaoyuanzi Protestant Church,35.09501,104.288082,1,Protestantism,1990
27352,Gansu,Weiyuan County Protestant Three-self Patriotic Movement Committee,35.057058,103.979412,1,Protestantism,1999
27353,Gansu,Mount Laojun Temple,35.125285,104.206774,4,Daoism,1992
27354,Gansu,Macang Temple,35.121171,104.159599,3,Buddhism,1987
27355,Gansu,Sanhekou Ancient Mosque,35.092006,104.385845,5,Islam,1996
27356,Gansu,Guanshangen Protestant Church,35.215237,104.118431,1,Protestantism,1995
27357,Gansu,Puzhao Temple,35.315051,104.292047,3,Buddhism,2000
27358,Gansu,Liangou Protestant Church,35.027701,104.118698,1,Protestantism,1998
27359,Gansu,Shenjiatan Protestant Church,35.057058,103.979412,1,Protestantism,1994
27360,Gansu,Zhuni Temple,35.13726,104.21607,3,Buddhism,1996
27361,Gansu,Panjiawan Protestant Church,35.334078,104.369115,1,Protestantism,1988
27362,Gansu,Fayuan Temple,35.137374,104.212983,3,Buddhism,1992
27363,Gansu,Malu Mountain Spring Cavern,34.979928,104.22704,4,Daoism,1995
27364,Gansu,Yuanming Temple,34.979928,104.22704,3,Buddhism,1979
27365,Gansu,Weiyuan County Islamic Association,35.092006,104.385845,5,Islam,1991
27366,Gansu,Mount Taibai,35.025324,104.055071,4,Daoism,1999
27367,Gansu,Shangmo Catholic Church,35.125285,104.206774,2,Catholicism,1992
27368,Gansu,Qingsheng Shrine,35.0183,104.2488,4,Daoism,1998
27369,Gansu,Chigou Protestant Church,35.027701,104.118698,1,Protestantism,1997
27370,Gansu,Weyuan County Buddhist Association,35.137374,104.212983,30,Buddhism,1937
27371,Gansu,Qinqi Township Protestant Church,35.356767,104.213403,1,Protestantism,1999
27372,Gansu,Baota Temple,35.067089,104.043178,3,Buddhism,1998
27373,Gansu,Qijiagou Protestant Church,35.102482,103.857019,1,Protestantism,1950
27374,Gansu,Weiyuan County Daoist Association,35.125285,104.206774,4,Daoism,2003
27375,Gansu,Weiyuan County Catholic Management Group,35.125285,104.206774,2,Catholicism,1992
27376,Gansu,Moquan Temple,35.02858,104.074872,3,Buddhism,1996
27377,Gansu,Mount Niangniang Temple,35.091197,103.978707,4,Daoism,2002
27378,Gansu,Sanhekou Upper Mosque,35.092006,104.385845,5,Islam,1996
27379,Gansu,Lintao County Buddhist Association,35.374461,103.863526,30,Buddhism,1986
27380,Gansu,Chaoyuan Temple,35.807622,103.57274,3,Buddhism,1990
27381,Gansu,Mufutil Lintao East Qubba (Mosque),35.377783,103.872126,5,Islam,1924
27382,Gansu,Wolong Temple,35.444873,103.850685,3,Buddhism,1992
27383,Gansu,Lingyan Temple,35.684286,103.69774,3,Buddhism,1996
27384,Gansu,Fogui Temple Ecological Tourism Park,35.342957,103.856802,3,Buddhism,2002
27385,Gansu,Lushi Temple,35.738789,103.643148,4,Daoism,1990
27386,Gansu,Lintao County Protestant Three-self Patriotic Committee,35.37484,103.86415,10,Protestantism,1984
27387,Gansu,Qianqing Temple,35.384693,103.85773,3,Buddhism,1993
27388,Gansu,Gaofo Temple Management Committee,35.448059,103.909887,3,Buddhism,2000
27389,Gansu,Xiyan Temple,35.378203,103.835264,3,Buddhism,1988
27390,Gansu,Zhang County Protestant Patriotic Movement Committee,34.799533,104.216849,1,Protestantism,1997
27391,Gansu,Zhang County Buddhist Association,34.85212,104.471481,30,Buddhism,1998
27392,Gansu,Min County Protestant Association,34.43767,104.03692,10,Protestantism,2000
27393,Gansu,Min County Protestant Three-self Patriotic Movement Committee,34.4353,104.03892,10,Protestantism,1995
27394,Gansu,Wudu District Buddhist Association,33.391588,104.929286,30,Buddhism,1984
27395,Gansu,Mount Wufeng Zhenwu Temple,33.4337,104.9237,4,Daoism,1996
27396,Gansu,Wudu District Islamic Association,33.392396,104.92652,5,Islam,1987
27397,Gansu,Wudu District Protestant Three-self Patriotic Movement Committee,33.392396,104.92652,10,Protestantism,1985
27398,Gansu,Wudu District Catholic Patriotic Association,33.390242,104.92627,20,Catholicism,1984
27399,Gansu,Jifeng Town Buddhist Association,33.689665,105.703699,30,Buddhism,1982
27400,Gansu,Eastern Peak Mount Tai Temple Management Committee,33.734787,105.757038,4,Daoism,1982
27401,Gansu,Wen County Buddhist Association,32.94797,104.6763,30,Buddhism,1994
27402,Gansu,Wen County Protestant Three-self Patriotic Movement Committee,32.94296,104.68139,10,Protestantism,1984
27403,Gansu,Eastern Peak Cultural and Art Affairs Board,33.468308,105.581425,4,Daoism,1992
27404,Gansu,He County Daoist Association,33.995689,105.311593,4,Daoism,1985
27405,Gansu,He County Buddhist Association,34.011017,105.277305,30,Buddhism,1987
27406,Gansu,Mount Huoyan Artifacts Preservation Leadership Group,33.699058,106.20073,4,Daoism,1982
27407,Gansu,Xiannong Catholic Church,33.766645,106.08617,2,Catholicism,1996
27408,Gansu,Dongguan Mosque,33.77267,106.0919,5,Islam,1996
27409,Gansu,Gaoqiao Mosque,34.058715,105.943916,5,Islam,1946
27410,Gansu,Yushu Mosque Management Committee,33.957065,106.010816,5,Islam,1947
27411,Gansu,Fu Town Mosque Management Committee,33.810338,105.956972,5,Islam,1978
27412,Gansu,Fanleng Protestant Church,33.766645,106.08617,1,Protestantism,1996
27413,Gansu,Jiangluo Mosque Management Committee,33.8902,105.8313,5,Islam,1972
27414,Gansu,Beichan Buddhist Temple Management Committee,33.838859,105.971802,3,Buddhism,1982
27415,Gansu,Mount Feng Lanchan Temple,33.766645,106.08617,3,Buddhism,1996
27416,Gansu,Wangwan Mosque,33.766645,106.08617,5,Islam,1996
27417,Gansu,Eastern Peak Artifacts Preservation Group,33.810338,105.956972,4,Daoism,2000
27418,Gansu,Mawan Mosque,33.766645,106.08617,5,Islam,2001
27419,Gansu,Beiguan Mosque,33.766645,106.08617,5,Islam,1996
27420,Gansu,Dongheyan Mosque,33.766645,106.08617,5,Islam,1998
27421,Gansu,Niyang Town Protestant Church,33.818722,105.828545,1,Protestantism,1996
27422,Gansu,Liangdang County Protestant Three-self Patriotic Movement Committee,33.908851,106.304973,10,Protestantism,1992
27423,Gansu,Xiangquan Temple Management Committee (Buddhist Association),33.913851,106.303566,30,Buddhism,1995
27424,Gansu,Daqi Mosque,35.5923,103.2095,5,Islam,1982
27425,Gansu,Jiezi Grand Mosque,35.548863,103.137741,5,Islam,1979
27426,Gansu,Hanjia Mosque Management Committee,35.568726,103.14943,3,Buddhism,1995
27427,Gansu,Qijia Old Mosque,35.581938,103.192485,5,Islam,1979
27428,Gansu,Lan Family Temple,35.551323,103.105792,4,Daoism,1983
27429,Gansu,Binhe East Road Mosque,35.594996,103.221757,5,Islam,2004
27430,Gansu,Luojiabao New Mosque Committee,35.566739,103.17656,5,Islam,1979
27431,Gansu,Luojiabao Grand Mosque,35.566739,103.17656,5,Islam,1980
27432,Gansu,Song Family Temple,35.567859,103.145406,4,Daoism,1980
27433,Gansu,Liu Family Temple Management Committee,35.5884,103.1911,5,Islam,1972
27434,Gansu,Fushen Temple,35.629545,103.228087,4,Daoism,1982
27435,Gansu,Houyang Village Minor Temple,35.524,103.122,4,Daoism,1985
27436,Gansu,Quanyi Mosque,35.5574,103.1468,5,Islam,1974
27437,Gansu,Niejiazhuang Old Mosque,35.560844,103.162257,5,Islam,1995
27438,Gansu,Yi Family Temple,35.568705,103.206717,4,Daoism,1985
27439,Gansu,Mayanzhuang Old Mosque,35.580802,103.175389,5,Islam,1978
27440,Gansu,Taitai Qubba (Mosque) Management Committee,35.610021,103.208833,5,Islam,1983
27441,Gansu,Mount Nanlong Huashan Buddhist Temple Management Committee,35.564934,103.208872,3,Buddhism,1989
27442,Gansu,Beichengjiao Old Qubba (Mosque) Management Committee,35.610021,103.208833,5,Islam,1983
27443,Gansu,Taizi Qubba (Mosque),35.600733,103.207493,5,Islam,1985
27444,Gansu,Jingkou Qubba (Mosque),35.592298,103.19978,5,Islam,1992
27445,Gansu,Hougucheng Minor Temple,35.610259,103.21974,4,Daoism,1996
27446,Gansu,Shangtuojia Mosque,35.605591,103.257848,5,Islam,1946
27447,Gansu,Guohanjia Mosque,35.614184,103.238438,5,Islam,1967
27448,Gansu,Yatou Mosque,35.527219,103.116674,5,Islam,1980
27449,Gansu,Muchang Mosque Management Committee,35.581399,103.208052,5,Islam,1979
27450,Gansu,Jiezi Qubba (Mosque),35.537622,103.141646,5,Islam,1985
27451,Gansu,Bijiachang Qubba (Mosque),35.58075,103.20279,5,Islam,1980
27452,Gansu,Gaodeng Family Temple,35.550012,103.173068,4,Daoism,1983
27453,Gansu,Shitouwa Upper Mosque,35.551411,103.158005,5,Islam,1993
27454,Gansu,Gadingjia Mosque,35.576508,103.231087,5,Islam,1937
27455,Gansu,Xiatuojia Mosque,35.614221,103.258929,5,Islam,1960
27456,Gansu,Chenma Qishe Temple,35.618092,103.23767,4,Daoism,1982
27457,Gansu,Amitabha Temple Buddhist Lay Organization,35.6089,103.2061,3,Buddhism,1992
27458,Gansu,Baizi Temple,35.581938,103.192485,4,Daoism,1980
27459,Gansu,Gaqing Temple Management Committee,35.567859,103.145406,5,Islam,1951
27460,Gansu,Jiuyanquan Qubba (Mosque) Management Committee,35.649149,103.250761,5,Islam,1995
27461,Gansu,Linxia City West Mosque,35.5918,103.2085,5,Islam,1981
27462,Gansu,Shiliangjia Temple Management Committee,35.573313,103.219026,4,Daoism,1895
27463,Gansu,Laohua Mosque,35.590445,103.203087,5,Islam,1978
27464,Gansu,Fushen Temple,35.595025,103.247515,4,Daoism,1996
27465,Gansu,Tianzhangjia Mosque,35.618092,103.23767,5,Islam,1980
27466,Gansu,Qianheyan Mosque,35.590307,103.206939,5,Islam,1937
27467,Gansu,Fushen Temple,35.580802,103.175389,4,Daoism,1980
27468,Gansu,Hanjia Mosque,35.59398,103.21532,5,Islam,1978
27469,Gansu,Shitouwa New Mosque,35.551411,103.158005,5,Islam,1984
27470,Gansu,Liangjiazhuang Mosque Management Committee,35.585957,103.229645,5,Islam,1995
27471,Gansu,Hougucheng Temple,35.618092,103.23767,5,Islam,1995
27472,Gansu,Lanzhou Qubba (Mosque),35.5884,103.1911,5,Islam,1983
27473,Gansu,Nanguan Mosque,35.614221,103.258929,5,Islam,1904
27474,Gansu,Zhangjiaju Temple,35.576508,103.231087,4,Daoism,1980
27475,Gansu,Fushen Temple Management Committee,35.649149,103.250761,4,Daoism,1982
27476,Gansu,Moujia Mosque,35.5913,103.2172,5,Islam,1980
27477,Gansu,Grand Baoen Temple Management Committee,35.604414,103.212561,3,Buddhism,1995
27478,Gansu,Baijiazhuang Mosque,35.557354,103.146778,5,Islam,1980
27479,Gansu,Zhoujiazhuang Mosque,35.629545,103.228087,5,Islam,1982
27480,Gansu,Niejia New Mosque,35.560844,103.162257,5,Islam,1996
27481,Gansu,Linwang Minor Temple,35.635018,103.236632,4,Daoism,1979
27482,Gansu,Shangershe Mosque Management Committee,35.5943,103.2154,5,Islam,1981
27483,Gansu,Baijiazhuang Mosque,35.582612,103.208391,5,Islam,1991
27484,Gansu,Gadingjia Upper Mosque,35.576508,103.231087,5,Islam,1985
27485,Gansu,Jinhua Ancient Altar Management Committee,35.5913,103.2172,4,Daoism,1981
27486,Gansu,Hongshan Qubba (Mosque),35.605591,103.257848,5,Islam,1946
27487,Gansu,Wu Family Temple Management Committee,35.567859,103.145406,4,Daoism,1984
27488,Gansu,Gazhuang Mosque,35.568726,103.14943,5,Islam,1984
27489,Gansu,Taiji Temple,35.635018,103.236632,4,Daoism,1980
27490,Gansu,Gabaozi Mosque,35.550012,103.173068,5,Islam,1982
27491,Gansu,Molu Qubba (Mosque),35.560844,103.162257,5,Islam,1996
27492,Gansu,Baojue Temple,35.618092,103.23767,3,Buddhism,1995
27493,Gansu,Xiaohe Mosque,35.614184,103.238438,5,Islam,1907
27494,Gansu,Yuanzhuang Mosque,35.560844,103.162257,5,Islam,1995
27495,Gansu,Xiaozhai Mosque,35.566739,103.17656,5,Islam,1977
27496,Gansu,Jieziqianjie Mosque,35.548863,103.137741,5,Islam,1944
27497,Gansu,Xinzhuangchao Temple,35.549865,103.120853,5,Islam,1995
27498,Gansu,Ma Family Temple,35.585957,103.229645,4,Daoism,1983
27499,Gansu,Hougou Mosque,35.550012,103.173068,5,Islam,1983
27500,Gansu,Xinwang Mosque,35.592764,103.213578,5,Islam,1977
27501,Gansu,Erlongwang Temple,35.5875,103.219,4,Daoism,1948
27502,Gansu,Linxia City Gospel Church,35.599164,103.210003,1,Protestantism,1985
27503,Gansu,Gabaojia Mosque,35.614221,103.258929,5,Islam,1980
27504,Gansu,Chengjiao Grand Mosque,35.59527,103.20887,5,Islam,1980
27505,Gansu,Heyantou Qubba (Mosque),35.58075,103.20279,5,Islam,1974
27506,Gansu,Guanjiatai Mosque,35.5877,103.2227,5,Islam,1988
27507,Gansu,Zhangjia Minor Temple,35.558296,103.186475,3,Buddhism,1949
27508,Gansu,Tangjiazhuang Mosque,35.580802,103.175389,5,Islam,1980
27509,Gansu,Sanlongwang Temple,35.594996,103.221757,4,Daoism,1985
27510,Gansu,Xinhua Mosque,35.6027,103.231,5,Islam,1978
27511,Gansu,Suoma Mosque,35.59798,103.20499,5,Islam,1993
27512,Gansu,Shi Cavern Qubba (Mosque),35.597156,103.198155,5,Islam,1995
27513,Gansu,Xialinwang Mosque,35.635018,103.236632,5,Islam,1978
27514,Gansu,Machang Mosque,35.6025,103.2314,5,Islam,1980
27515,Gansu,Laowang Mosque,35.590671,103.212699,5,Islam,1976
27516,Gansu,Shangmuchang Mosque,35.581399,103.208052,5,Islam,1980
27517,Gansu,Caotan Temple,35.5377,103.1417,4,Daoism,1980
27518,Gansu,Xijiao Mosque,35.59234,103.19969,5,Islam,1998
27519,Gansu,Linxiaguo Qubba (Mosque) Management Committee,35.600733,103.207493,5,Islam,1984
27520,Gansu,Xiaershe Mosque,35.593784,103.215074,5,Islam,1980
27521,Gansu,Xinjiahe Mosque,35.557354,103.146778,5,Islam,1983
27522,Gansu,Zhangjiatai Temple,35.550012,103.173068,4,Daoism,1982
27523,Gansu,Puguang Temple,35.614184,103.238438,3,Buddhism,1967
27524,Gansu,Shitouwa Mosque,35.551411,103.158005,5,Islam,1980
27525,Gansu,Hejiawan Mosque,35.558296,103.186475,5,Islam,1982
27526,Gansu,Mayanzhuang New Mosque,35.580802,103.175389,5,Islam,1982
27527,Gansu,Silongwang Temple,35.614184,103.238438,4,Daoism,1967
27528,Gansu,Maojiayuan Mosque,35.6025,103.2314,5,Islam,1982
27529,Gansu,Chongling Temple Management Committee,35.585957,103.229645,4,Daoism,1996
27530,Gansu,Banzichen Minor Temple,35.635018,103.236632,4,Daoism,1980
27531,Gansu,Wang Family Temple Management Committee,35.568726,103.14943,4,Daoism,1995
27532,Gansu,Linxia City North Mosque,35.595,103.21082,5,Islam,1981
27533,Gansu,Gaqingsi Grand Mosque,35.567859,103.145406,5,Islam,1989
27534,Gansu,Tongjiangzhuang Mosque,35.568726,103.14943,5,Islam,1978
27535,Gansu,Helanjia Mosque,35.549865,103.120853,5,Islam,1995
27536,Gansu,Machang Mosque,35.58995,103.19494,5,Islam,1996
27537,Gansu,Danzizhuang Minor Temple,35.558296,103.186475,4,Daoism,1984
27538,Gansu,Lintao Qubba (Mosque),35.59056,103.191976,5,Islam,1981
27539,Gansu,Majiazhuang Mosque Management Committee,35.585957,103.229645,5,Islam,1995
27540,Gansu,Xinjiahe South Mosque,35.557354,103.146778,5,Islam,1984
27541,Gansu,Mount Nanlong Yuxu Temple Daoist Management Committee,35.564934,103.208872,4,Daoism,1995
27542,Gansu,Jingyan Amitabha Temple,35.568705,103.206717,3,Buddhism,1991
27543,Gansu,Shuiquan Mosque,35.5884,103.2158,5,Islam,1978
27544,Gansu,Dongjiao Mosque,35.593,103.209,5,Islam,1989
27545,Gansu,Quanwanzhaizi Mosque,35.551323,103.105792,5,Islam,1994
27546,Gansu,Hetuo Temple,35.566739,103.17656,4,Daoism,1980
27547,Gansu,Qimoujia Mosque,35.649149,103.250761,5,Islam,1982
27548,Gansu,Laozhuang Temple,35.635018,103.236632,5,Islam,1995
27549,Gansu,Jiangpai Mosque,35.549865,103.120853,5,Islam,1995
27550,Gansu,Nanguan Grand Mosque,35.592764,103.213578,5,Islam,1976
27551,Gansu,Yangjia Grand Mosque,35.605591,103.257848,5,Islam,1946
27552,Gansu,Zhao Family Temple,35.568705,103.206717,4,Daoism,1983
27553,Gansu,Yiguang Temple,35.602486,103.196228,5,Islam,1980
27554,Gansu,Longquan Temple,35.575998,103.232165,3,Buddhism,1980
27555,Gansu,Xiaozhai Temple,35.566739,103.17656,4,Daoism,1980
27556,Gansu,Wanshou Temple,35.6023,103.1988,4,Daoism,1951
27557,Gansu,Suoma Temple,35.537622,103.141646,5,Islam,1995
27558,Gansu,Tianqiao Temple,35.614184,103.238438,4,Daoism,1967
27559,Gansu,Gazhuang Mosque,35.5574,103.1468,5,Islam,1979
27560,Gansu,Qingzhen Grand Qubba (Mosque) Management Committee,35.597801,103.200805,5,Islam,1983
27561,Gansu,Daxiguan Mosque Management Committee,35.59829,103.20578,5,Islam,1886
27562,Gansu,Huasi Qubba Mosque,35.5903,103.2018,5,Islam,1981
27563,Gansu,Kuixingge Mosque Management Committee,35.5969,103.2182,5,Islam,1981
27564,Gansu,Mingde Mosque,35.596322,103.199397,5,Islam,1980
27565,Gansu,Xiangjiangzhuang Mosque Management Committee,35.582612,103.208391,5,Islam,1980
27566,Gansu,Quanyan Temple,35.610629,103.191416,4,Daoism,1994
27567,Gansu,Erlang Temple,35.610629,103.191416,4,Daoism,1989
27568,Gansu,Chaoyin Temple,35.620175,103.2079,3,Buddhism,1989
27569,Gansu,Liuzhongjia Mosque,35.614317,103.198728,5,Islam,1980
27570,Gansu,Shanzhuang Mosque,35.557281,103.086835,5,Islam,1980
27571,Gansu,Quanyan Temple,35.614193,103.192845,4,Daoism,1984
27572,Gansu,Zhaotai Beishan Temple,35.511095,103.087385,5,Islam,1984
27573,Gansu,Ma Family Temple,35.520045,103.102127,4,Daoism,1987
27574,Gansu,Tuojiawan Mosque,35.578408,103.131273,5,Islam,1980
27575,Gansu,Dang Family Temple,35.623889,103.211165,4,Daoism,1982
27576,Gansu,Fushen Temple,35.614193,103.192845,4,Daoism,1984
27577,Gansu,Baojia Mosque,35.65799,103.235825,5,Islam,1987
27578,Gansu,Buzi Mosque,35.610629,103.191416,5,Islam,1978
27579,Gansu,Liusishe Mosque,35.610629,103.191416,5,Islam,1983
27580,Gansu,Fajia Temple,35.578408,103.131273,4,Daoism,1994
27581,Gansu,Duan Family Temple,35.562156,103.101001,4,Daoism,1978
27582,Gansu,Hujiazhuang Mosque Management Committee,35.649739,103.202832,5,Islam,1980
27583,Gansu,Baozi Old Mosque Management Committee,35.649739,103.202832,5,Islam,1995
27584,Gansu,Quanyi Qubba (Mosque) Management Committee,35.649739,103.202832,5,Islam,1980
27585,Gansu,Tiejia Mosque,35.4384,103.0238,5,Islam,1979
27586,Gansu,Baozi Mosque Management Committee,35.649739,103.202832,5,Islam,1943
27587,Gansu,Lingming Mosque Linxia Qubba (Mosque) Management Committee,35.649739,103.202832,5,Islam,1991
27588,Gansu,Lingming Qubba (Mosque) Democratic Management Committee,35.649739,103.202832,5,Islam,1991
27589,Gansu,Majiatai Mosque,35.439137,102.977714,5,Islam,1985
27590,Gansu,Daola Mosque,35.518727,102.982846,5,Islam,1930
27591,Gansu,Heyanshang Mosque,35.4815,102.999732,5,Islam,1996
27592,Gansu,Yangjiaping Temple,35.502036,103.049782,4,Daoism,1983
27593,Gansu,Xueshan Temple,35.436653,103.061309,4,Daoism,1983
27594,Gansu,Masa Mosque,35.542463,103.06212,5,Islam,1980
27595,Gansu,Shejia Mosque,35.516819,102.914191,5,Islam,1986
27596,Gansu,Xiawupai Minor Temple,35.712225,103.202296,4,Daoism,1980
27597,Gansu,Pujia Temple,35.423215,103.104017,5,Islam,1995
27598,Gansu,Dapo Mosque,35.539098,102.9953,5,Islam,1980
27599,Gansu,Liushe Mosque,35.426326,103.008028,5,Islam,1984
27600,Gansu,Wangjiawan Mosque,35.503943,102.978809,5,Islam,1982
27601,Gansu,Mujiahe Temple,35.423215,103.104017,4,Daoism,1982
27602,Gansu,Xiazhai Mosque,35.491939,103.084687,5,Islam,1981
27603,Gansu,Yamenzhuang Mosque,35.523266,102.966267,5,Islam,1979
27604,Gansu,Zhaizi Temple,35.436653,103.061309,4,Daoism,1983
27605,Gansu,Manlu Village Mosque,35.420412,103.106516,5,Islam,1981
27606,Gansu,Gazhaojia Mosque,35.490648,103.157815,5,Islam,1980
27607,Gansu,Changjia Mosque,35.715209,103.229138,5,Islam,1990
27608,Gansu,Sipai Temple,35.706571,103.169579,4,Daoism,1980
27609,Gansu,Dazhuang Old Mosque,35.471858,102.952947,5,Islam,1996
27610,Gansu,Kangsa Mosque,35.516819,102.914191,5,Islam,1986
27611,Gansu,Zhongxia Temple,35.551837,102.955679,5,Islam,1953
27612,Gansu,Simaping Mosque,35.483095,102.931974,5,Islam,1982
27613,Gansu,Dashanzhuang Temple,35.459557,103.077323,4,Daoism,1981
27614,Gansu,Ma Family Temple,35.543006,103.202721,4,Daoism,1982
27615,Gansu,Gazhuang Mosque,35.542463,103.06212,5,Islam,1981
27616,Gansu,Mount Yandong Yingfeng Temple,35.509093,103.051095,4,Daoism,1865
27617,Gansu,Zhaizi Temple,35.666084,103.208765,4,Daoism,1970
27618,Gansu,Pogen Mosque,35.438379,103.02378,5,Islam,1924
27619,Gansu,Zhao Family Temple,35.503284,103.106656,4,Daoism,1911
27620,Gansu,Dazhuang Mosque,35.538738,102.940665,5,Islam,1947
27621,Gansu,Yangwa Mosque,35.472987,103.132414,5,Islam,1992
27622,Gansu,Hejiaju Mosque,35.511758,102.927321,5,Islam,1980
27623,Gansu,Landabao Mosque,35.452555,103.022126,5,Islam,1980
27624,Gansu,Wangjiahe Mosque,35.433448,103.139924,5,Islam,1980
27625,Gansu,Muchang Mosque,35.469709,102.906304,5,Islam,1980
27626,Gansu,Duozhibacheng Village Mosque,35.440698,103.005959,5,Islam,1982
27627,Gansu,Liancheng Sanshe Temple,35.67975,103.244997,4,Daoism,1985
27628,Gansu,Jianshang Grand Mosque,35.498135,103.09639,5,Islam,1995
27629,Gansu,Datan Mosque,35.472323,103.108219,5,Islam,1980
27630,Gansu,Zhongnongzhan Temple,35.56711,102.943204,5,Islam,1983
27631,Gansu,Taizi Mosque,35.470629,102.989387,5,Islam,1976
27632,Gansu,Huangjialiang Mosque,35.490648,103.157815,5,Islam,1986
27633,Gansu,Yaodongshan Mosque,35.539732,103.091406,5,Islam,1961
27634,Gansu,Bai Family Temple,35.508362,103.113338,4,Daoism,1981
27635,Gansu,Wang Family Temple,35.425664,102.955091,4,Daoism,1990
27636,Gansu,Jutou Village Mosque,35.478869,103.058902,5,Islam,1980
27637,Gansu,Yuanjiazhuang Mosque,35.538731,103.104323,5,Islam,1973
27638,Gansu,Shangdaling Mosque,35.473827,102.927427,5,Islam,1983
27639,Gansu,Haodeng Family Temple,35.532205,103.169366,4,Daoism,1981
27640,Gansu,Yangjiazhuang Mosque,35.440698,103.005959,5,Islam,1976
27641,Gansu,Maozhashan Mosque,35.535387,103.029329,5,Islam,1980
27642,Gansu,Longbaka Mosque,35.52765,102.929901,5,Islam,1958
27643,Gansu,Changpoyan Mosque,35.458156,103.005382,5,Islam,1981
27644,Gansu,Zhangjia Temple,35.556739,102.976523,5,Islam,1938
27645,Gansu,Gadawai Mosque,35.425356,102.987963,5,Islam,1982
27646,Gansu,Zhongzhuang Grand Mosque,35.490271,102.961889,5,Islam,1980
27647,Gansu,Dashudi Temple,35.427336,103.033304,4,Daoism,2001
27648,Gansu,Shisanshe Mosque,35.473827,102.927427,5,Islam,1987
27649,Gansu,Longwo Mosque,35.556739,102.976523,5,Islam,1978
27650,Gansu,Gabashan Buddhist Temple,35.523266,102.966267,3,Buddhism,1984
27651,Gansu,Aotou Temple,35.698657,103.225021,4,Daoism,1981
27652,Gansu,Gapingling Mosque,35.524151,102.900993,5,Islam,1986
27653,Gansu,Dahuangdi Village Grand Mosque,35.564314,102.96212,5,Islam,1977
27654,Gansu,Zhoutan Minor Temple,35.592224,103.090783,4,Daoism,1991
27655,Gansu,Caozi Mosque,35.423215,103.104017,5,Islam,1952
27656,Gansu,Yangwashan Mosque,35.497122,102.999422,5,Islam,1979
27657,Gansu,Baozi Mosque,35.426326,103.008028,5,Islam,1981
27658,Gansu,Dapoju Mosque,35.503943,102.978809,5,Islam,1982
27659,Gansu,Yinjiawan Mosque,35.440698,103.005959,5,Islam,1984
27660,Gansu,Zhangjia Mosque,35.490271,102.961889,5,Islam,1980
27661,Gansu,Ketuo Mosque,35.490271,102.961889,5,Islam,1982
27662,Gansu,Qiaojiaping Mosque,35.523266,102.966267,5,Islam,1979
27663,Gansu,Zhongyi Mosque,35.609998,103.086973,5,Islam,1981
27664,Gansu,Tiezhai Township Grand Mosque,35.436653,103.061309,5,Islam,1982
27665,Gansu,Dayakou Mountain God Temple,35.406974,103.130863,4,Daoism,1984
27666,Gansu,Gabaozi Mosque,35.490271,102.961889,5,Islam,1982
27667,Gansu,Dashan Mosque,35.528425,103.07726,5,Islam,1981
27668,Gansu,Shangpodi Mosque,35.446601,102.992734,5,Islam,1981
27669,Gansu,Zhaizi Temple,35.459726,103.125519,4,Daoism,1980
27670,Gansu,Goudi Mosque,35.472323,103.108219,5,Islam,1944
27671,Gansu,Ciwa Mosque,35.470629,102.989387,5,Islam,1981
27672,Gansu,Gaji Mosque,35.498135,103.09639,5,Islam,1976
27673,Gansu,Daping Mosque,35.524151,102.900993,5,Islam,1996
27674,Gansu,Nanzhuang Mosque,35.576,103.091833,5,Islam,1980
27675,Gansu,Shangwan Mosque,35.488459,102.982812,5,Islam,1980
27676,Gansu,Zhangjiawan Village Minor Temple,35.443621,103.085984,4,Daoism,1987
27677,Gansu,Kang'er Temple,35.721628,103.190669,4,Daoism,1978
27678,Gansu,Zhujia Mosque,35.439137,102.977714,5,Islam,1985
27679,Gansu,Houzhuang Mosque,35.523266,102.966267,5,Islam,1979
27680,Gansu,Mouqiling Buddhist Temple,35.542463,103.06212,3,Buddhism,1989
27681,Gansu,Wayao Mosque,35.470629,102.989387,5,Islam,1985
27682,Gansu,Gaping Mosque,35.524151,102.900993,5,Islam,1987
27683,Gansu,Yangpogou Mosque,35.446893,102.974092,5,Islam,1981
27684,Gansu,Fanyangshan Upper Temple,35.607121,103.141283,5,Islam,1984
27685,Gansu,Lijiagou Temple,35.482441,103.140425,4,Daoism,1986
27686,Gansu,Dazhuang Temple,35.504314,103.013101,4,Daoism,1998
27687,Gansu,Majiawan Mosque,35.470435,102.969004,5,Islam,1979
27688,Gansu,Zhoujia Temple,35.667522,103.172721,5,Islam,1983
27689,Gansu,Gaxinzhuang Mosque,35.482441,103.140425,5,Islam,1925
27690,Gansu,Wujidimu Temple Management Committee,35.733826,103.206658,4,Daoism,1990
27691,Gansu,Yingtan Temple,35.369496,103.074223,4,Daoism,1982
27692,Gansu,Xinzhuang Mosque,35.458156,103.005382,5,Islam,1984
27693,Gansu,Shuikuotuo Minor Temple,35.440698,103.005959,3,Buddhism,1998
27694,Gansu,Liangjiashan Mosque,35.502036,103.049782,5,Islam,1982
27695,Gansu,Shangdonggou Mosque,35.476456,103.10453,5,Islam,1944
27696,Gansu,Gaojiagou Mosque,35.405019,103.092166,5,Islam,1980
27697,Gansu,Shangwan Mosque,35.538738,102.940665,5,Islam,1985
27698,Gansu,Hejiamo Temple,35.436653,103.061309,4,Daoism,1998
27699,Gansu,Huokou Mosque,35.573515,102.967917,5,Islam,1987
27700,Gansu,Huangniwan Township Mosque,35.537658,103.232986,5,Islam,1980
27701,Gansu,Dayuanding Mosque,35.582385,103.129813,5,Islam,1981
27702,Gansu,Hongyagou Mosque,35.440698,103.005959,5,Islam,1984
27703,Gansu,Xinzhuang Mosque,35.48875,103.005687,5,Islam,1981
27704,Gansu,Jinhua Altar,35.476208,103.073983,4,Daoism,1982
27705,Gansu,Songjiawa Mosque,35.455071,103.137995,5,Islam,1938
27706,Gansu,Yinji Village Old Mosque,35.476208,103.073983,5,Islam,1978
27707,Gansu,Yamagou Mosque,35.470629,102.989387,5,Islam,1985
27708,Gansu,Caojiapo Grand Mosque,35.508862,102.989949,5,Islam,1979
27709,Gansu,Yangpogen Mosque,35.440698,103.005959,5,Islam,1996
27710,Gansu,Qianzhuang Mosque,35.465846,102.964255,5,Islam,1980
27711,Gansu,Gabaozi Mosque,35.580828,102.98135,5,Islam,1980
27712,Gansu,Xianongzhan Temple,35.56711,102.943204,5,Islam,1980
27713,Gansu,Upper Yangwashan Mosque,35.538738,102.940665,5,Islam,1985
27714,Gansu,Longwang Temple,35.487937,103.13897,4,Daoism,1982
27715,Gansu,Shanzhuang Mosque,35.592224,103.090783,5,Islam,1978
27716,Gansu,Zhoujiashan Minor Temple,35.570074,103.093571,4,Daoism,1984
27717,Gansu,Sandawan Mosque,35.539098,102.9953,5,Islam,1981
27718,Gansu,Shanzhuang Mosque,35.470435,102.969004,5,Islam,1979
27719,Gansu,Hanjiashe Buddhist Temple,35.500481,102.961138,3,Buddhism,1980
27720,Gansu,Houping Mosque,35.471089,103.021306,5,Islam,1982
27721,Gansu,Ciyun Temple,35.690877,103.18417,3,Buddhism,1983
27722,Gansu,Majia Mosque,35.454849,103.041876,5,Islam,1977
27723,Gansu,Jiangyangfushen Temple,35.669767,103.230049,4,Daoism,1983
27724,Gansu,Zhonglu Mosque,35.503127,102.918686,5,Islam,1980
27725,Gansu,Majiashan Mosque,35.435755,102.998447,5,Islam,1983
27726,Gansu,Fanyangshan Lower Temple,35.607121,103.141283,5,Islam,1980
27727,Gansu,Lingshan Temple,35.482232,103.043566,3,Buddhism,1983
27728,Gansu,Mochuan Grand Mosque,35.489405,103.003534,5,Islam,1981
27729,Gansu,Bai Family Temple,35.395517,103.110087,4,Daoism,1982
27730,Gansu,Shanzhuang Mosque,35.472323,103.108219,5,Islam,1944
27731,Gansu,Balizhai Mosque,35.523997,103.090023,5,Islam,1974
27732,Gansu,Lijiamo Mosque Management Committee,35.557252,103.023565,5,Islam,1979
27733,Gansu,Caotan Mosque,35.580828,102.98135,5,Islam,1980
27734,Gansu,Menjia Mosque,35.580828,102.98135,5,Islam,1980
27735,Gansu,Shangwupai Temple,35.666084,103.208765,4,Daoism,1970
27736,Gansu,Chiwan Mosque,35.488459,102.982812,5,Islam,1949
27737,Gansu,Caotan Mosque,35.511758,102.927321,5,Islam,1978
27738,Gansu,Dagengzi Mosque,35.483095,102.931974,5,Islam,1983
27739,Gansu,Dashudi Mosque,35.462645,103.048453,5,Islam,1952
27740,Gansu,Longhuwan Village Temple Management Committee,35.395517,103.110087,4,Daoism,1982
27741,Gansu,Duozhiba Qubba (Mosque),35.440698,103.005959,5,Islam,1981
27742,Gansu,Zhangjiaquan Sanhuang Temple,35.712225,103.202296,4,Daoism,1999
27743,Gansu,Guowu Village Minor Temple,35.554718,103.228553,4,Daoism,1980
27744,Gansu,Shuangcheng Mosque,35.482232,103.043566,5,Islam,1884
27745,Gansu,Yangjia Mosque,35.572489,102.98477,5,Islam,1979
27746,Gansu,Guojiazhuang Temple,35.590746,103.153177,4,Daoism,1980
27747,Gansu,Jingci Temple,35.656151,103.161979,3,Buddhism,1983
27748,Gansu,Puyang Chenxu Temple,35.750901,103.139425,4,Daoism,1994
27749,Gansu,Niuwei Mosque,35.468539,102.949035,5,Islam,1984
27750,Gansu,Dujiawan Mosque,35.443621,103.085984,5,Islam,1981
27751,Gansu,Dabao Mosque,35.572489,102.98477,5,Islam,1978
27752,Gansu,Xiapodi Mosque,35.448368,102.994877,5,Islam,1981
27753,Gansu,Shacang Temple,35.369496,103.074223,4,Daoism,1983
27754,Gansu,Gayangjia Mosque,35.586731,103.05994,5,Islam,1976
27755,Gansu,Tangjiawan Mosque,35.482441,103.140425,5,Islam,1979
27756,Gansu,Zhaodu Family Temple,35.678385,103.210389,4,Daoism,1981
27757,Gansu,Yadixia Mosque,35.490271,102.961889,5,Islam,1982
27758,Gansu,Qianwan Mosque,35.416962,103.030149,5,Islam,1981
27759,Gansu,Erlang Temple,35.643923,103.16885,4,Daoism,1978
27760,Gansu,Yangjia Temple Mosque,35.509093,103.051095,5,Islam,1905
27761,Gansu,Gadiwan Mosque,35.446893,102.974092,5,Islam,1981
27762,Gansu,Shangwan Mosque,35.423215,103.104017,5,Islam,1970
27763,Gansu,Gazhuang Mosque,35.457355,103.061641,5,Islam,1985
27764,Gansu,Dashahe Mosque,35.528089,102.949016,5,Islam,1949
27765,Gansu,Biega Village Mosque,35.440698,103.005959,5,Islam,1996
27766,Gansu,Tachi Mosque,35.458257,102.9889,5,Islam,1985
27767,Gansu,Ningba Mosque,35.584588,102.972779,5,Islam,1979
27768,Gansu,Zushi Temple,35.659625,103.135528,4,Daoism,1984
27769,Gansu,Dahuangdi New Mosque,35.592224,103.090783,5,Islam,1980
27770,Gansu,Lupanshan Mosque,35.550997,103.258919,5,Islam,1982
27771,Gansu,Shanding Mosque,35.440698,103.005959,5,Islam,1980
27772,Gansu,Wayao Mosque,35.423215,103.104017,5,Islam,1982
27773,Gansu,Shangxigou Mosque,35.405978,103.079849,5,Islam,1978
27774,Gansu,Xigoumen Mosque,35.491939,103.084687,5,Islam,1986
27775,Gansu,Manzichuan Mosque,35.482441,103.140425,5,Islam,1994
27776,Gansu,Yangwa Temple,35.551837,102.955679,5,Islam,1991
27777,Gansu,Houzhuang Minor Temple,35.482441,103.140425,5,Islam,1993
27778,Gansu,Mapo Mosque,35.472323,103.108219,5,Islam,1955
27779,Gansu,Dazhuang Qubba (Mosque),35.468539,102.949035,5,Islam,1981
27780,Gansu,Gaojia Temple,35.503284,103.106656,5,Islam,1946
27781,Gansu,Pan Family Temple,35.698657,103.225021,4,Daoism,1983
27782,Gansu,Xiazhamuping Mosque,35.500481,102.961138,5,Islam,1980
27783,Gansu,Jijia Mosque,35.469709,102.906304,5,Islam,1982
27784,Gansu,Shangshan Mosque,35.497122,102.999422,5,Islam,1979
27785,Gansu,Zhangwang Temple,35.743983,103.15654,4,Daoism,1981
27786,Gansu,Zhoujialing Grand Mosque,35.433209,103.100124,5,Islam,1978
27787,Gansu,Xia Family Temple,35.423215,103.104017,4,Daoism,1983
27788,Gansu,Lougaoqi Temple,35.651915,103.226562,4,Daoism,1980
27789,Gansu,Shaniguo Mosque,35.580828,102.98135,5,Islam,1980
27790,Gansu,Hunyuanzushi Temple,35.721628,103.190669,4,Daoism,1997
27791,Gansu,Baituzhuang Temple,35.765995,103.157995,4,Daoism,1978
27792,Gansu,Sanjiaobao Mosque,35.643923,103.16885,5,Islam,1930
27793,Gansu,Zhangqi Temple,35.538731,103.104323,5,Islam,1942
27794,Gansu,Gazhuang Mosque,35.489405,103.003534,5,Islam,1980
27795,Gansu,Qishe Mosque,35.584588,102.972779,5,Islam,1979
27796,Gansu,Qinjia Minor Temple,35.590746,103.153177,4,Daoism,1980
27797,Gansu,Yandongshan Mosque,35.502036,103.049782,5,Islam,1982
27798,Gansu,Qingjiatai Temple,35.455071,103.137995,4,Daoism,1908
27799,Gansu,Yangwazhuang Mosque,35.470435,102.969004,5,Islam,1979
27800,Gansu,Dongshan Baoguang Temple,35.576,103.091833,3,Buddhism,1985
27801,Gansu,Machangshan Mosque,35.483095,102.931974,5,Islam,1983
27802,Gansu,Gazhuang Mosque,35.52765,102.929901,5,Islam,1958
27803,Gansu,An'ge Temple,35.651915,103.226562,3,Buddhism,1981
27804,Gansu,Majingou Mosque,35.655515,103.133627,5,Islam,1983
27805,Gansu,Xiajiawan Mosque,35.472987,103.132414,5,Islam,1944
27806,Gansu,Xianjia Cavern Yuquan Temple,35.497122,102.999422,4,Daoism,1945
27807,Gansu,Longti Mosque,35.511758,102.927321,5,Islam,1980
27808,Gansu,Jiaopenwan Mosque,35.616559,103.111436,5,Islam,1932
27809,Gansu,Yangshan Mosque,35.459557,103.077323,5,Islam,1988
27810,Gansu,Dongwan Mosque,35.509837,102.938168,5,Islam,1982
27811,Gansu,Xinzhuang Mosque,35.538731,103.104323,5,Islam,1942
27812,Gansu,Shijiahe Mosque,35.438379,103.02378,5,Islam,1937
27813,Gansu,Daquan Mosque,35.488459,102.982812,5,Islam,1946
27814,Gansu,Bapaifushen Temple,35.6436,103.182576,4,Daoism,1980
27815,Gansu,Shangdiewa Mosque,35.556739,102.976523,5,Islam,1982
27816,Gansu,Shangshi New Mosque,35.590746,103.153177,5,Islam,1980
27817,Gansu,Yandongshan Temple,35.521961,103.176792,4,Daoism,1980
27818,Gansu,Gasanshe Mosque,35.573527,102.974876,5,Islam,1983
27819,Gansu,Hujiagazhuang Mosque,35.669767,103.230049,5,Islam,1980
27820,Gansu,Wu Family Grand Temple,35.421664,103.089093,4,Daoism,1996
27821,Gansu,Baiya Mosque,35.576,103.091833,5,Islam,1980
27822,Gansu,Anjiapo Village New Temple,35.67975,103.244997,5,Islam,1980
27823,Gansu,Pangguan Temple,35.503284,103.106656,4,Daoism,1920
27824,Gansu,Leileishan Mosque,35.580828,102.98135,5,Islam,1962
27825,Gansu,Yinshan Mosque,35.584588,102.972779,5,Islam,1979
27826,Gansu,Gaojiazhuang Grand Mosque,35.452555,103.022126,5,Islam,1980
27827,Gansu,Yangwangjia Minor Temple,35.672224,103.187473,4,Daoism,1985
27828,Gansu,Anjiapo Grand Mosque,35.67975,103.244997,5,Islam,1985
27829,Gansu,Zhanghexi Temple,35.719777,103.178002,4,Daoism,1981
27830,Gansu,Shanzhuang Mosque,35.469709,102.906304,5,Islam,1982
27831,Gansu,Zaowan Mosque,35.52765,102.929901,5,Islam,1958
27832,Gansu,Yingtan Township Grand Mosque,35.573515,102.967917,5,Islam,1979
27833,Gansu,Guojiazhuang Mosque,35.590746,103.153177,5,Islam,1980
27834,Gansu,Damiaoshan Temple Management Committee,35.471089,103.021306,4,Daoism,1982
27835,Gansu,Xiangling Temple Management Committee,35.476208,103.073983,4,Daoism,1980
27836,Gansu,Qianchuan Grand Mosque,35.468539,102.949035,5,Islam,1982
27837,Gansu,Songquan Temple,35.440698,103.005959,3,Buddhism,1980
27838,Gansu,Zhamaju Mosque,35.490271,102.961889,5,Islam,1982
27839,Gansu,Dujiawan Minor Temple,35.443621,103.085984,4,Daoism,1981
27840,Gansu,Dadiwan Mosque,35.446893,102.974092,5,Islam,1981
27841,Gansu,Baojia Earth God Temple,35.488459,102.982812,4,Daoism,1960
27842,Gansu,Xishanbaozi Mosque,35.438379,103.02378,5,Islam,1924
27843,Gansu,Huangdi Mosque,35.580828,102.98135,5,Islam,1965
27844,Gansu,Jiandixia Mosque,35.498135,103.09639,5,Islam,1980
27845,Gansu,Wangjiazhuang Mosque,35.607121,103.141283,5,Islam,1980
27846,Gansu,Ma Family Temple,35.69411,103.207613,4,Daoism,1983
27847,Gansu,Huangniwan Township Grand Mosque,35.537658,103.232986,5,Islam,1980
27848,Gansu,Sunjiashan Mosque,35.490648,103.157815,5,Islam,1978
27849,Gansu,Bali Temple,35.528592,102.865798,3,Buddhism,1980
27850,Gansu,Shangjiawan Temple,35.532165,103.014663,4,Daoism,1980
27851,Gansu,Guojiaju Temple,35.511336,103.144517,4,Daoism,1979
27852,Gansu,Tangjiashan Mosque,35.490271,102.961889,5,Islam,1982
27853,Gansu,Shanzhuang Mosque,35.416962,103.030149,5,Islam,1983
27854,Gansu,Siqishe Mosque,35.426326,103.008028,5,Islam,1981
27855,Gansu,Anjiapo South Mosque,35.67975,103.244997,5,Islam,1985
27856,Gansu,Qiujiagou Buddhist Temple,35.548738,103.03969,3,Buddhism,1989
27857,Gansu,Daijia Mosque,35.548738,103.03969,5,Islam,1982
27858,Gansu,Shangzhamu Mosque,35.500481,102.961138,5,Islam,1980
27859,Gansu,Santai Mosque,35.543104,102.874254,5,Islam,1980
27860,Gansu,Haodeng Family Temple,35.517569,103.184139,4,Daoism,1981
27861,Gansu,Heiciliang Mosque,35.538738,102.940665,5,Islam,1980
27862,Gansu,Gouyan Mosque,35.548738,103.03969,5,Islam,1992
27863,Gansu,Shanghejiamo Mosque,35.436653,103.061309,5,Islam,1982
27864,Gansu,Shanzhuang Mosque,35.518121,103.062176,5,Islam,1905
27865,Gansu,Wanwan Mosque,35.576,103.091833,5,Islam,1980
27866,Gansu,Heyan Mosque,35.489405,103.003534,5,Islam,1996
27867,Gansu,Gazhuang Temple,35.500481,102.961138,5,Islam,1980
27868,Gansu,Zhaojia Village Mosque,35.509837,102.938168,5,Islam,1979
27869,Gansu,Gabashan Upper Mosque,35.523266,102.966267,5,Islam,1979
27870,Gansu,Dasha Buddhist Temple,35.528089,102.949016,3,Buddhism,1925
27871,Gansu,Jiajia Temple,35.634774,103.171836,5,Islam,1981
27872,Gansu,Dagou Mosque,35.416962,103.030149,5,Islam,1982
27873,Gansu,Huaigou Mosque,35.538738,102.940665,5,Islam,1978
27874,Gansu,Mujiahe Mosque,35.423215,103.104017,5,Islam,1970
27875,Gansu,Hongyatou Mosque,35.472323,103.108219,5,Islam,1980
27876,Gansu,Huangdi Mosque,35.580828,102.98135,5,Islam,1981
27877,Gansu,Luojia Grand Mosque,35.503943,102.978809,5,Islam,1982
27878,Gansu,Xiaxigou Mosque,35.405978,103.079849,5,Islam,1952
27879,Gansu,Qianzhuang Mosque,35.482441,103.140425,5,Islam,1980
27880,Gansu,Yinshan Mosque,35.489405,103.003534,5,Islam,1980
27881,Gansu,Yatou Mosque,35.509837,102.938168,5,Islam,1982
27882,Gansu,Baijia Mosque,35.458156,103.005382,5,Islam,1982
27883,Gansu,Xiawan Mosque,35.613722,103.123805,5,Islam,1978
27884,Gansu,Niukexie Mosque,35.538738,102.940665,5,Islam,1979
27885,Gansu,Shanzhuang Temple,35.469709,102.906304,4,Daoism,1979
27886,Gansu,Wangbao Mosque Management Committee,35.532165,103.014663,5,Islam,1980
27887,Gansu,Moya Mosque,35.497814,102.935271,5,Islam,1982
27888,Gansu,Huangjia Minor Temple,35.70799,103.212547,4,Daoism,1985
27889,Gansu,Longwang Temple,35.690877,103.18417,4,Daoism,1981
27890,Gansu,Shangyangpogou Mosque,35.446893,102.974092,5,Islam,1981
27891,Gansu,Quanyan Temple,35.743141,103.109386,4,Daoism,1980
27892,Gansu,Zhijiazhuang Mosque,35.572489,102.98477,5,Islam,1979
27893,Gansu,Shandiha Mosque,35.435755,102.998447,5,Islam,1983
27894,Gansu,Wangbao Temple,35.532165,103.014663,4,Daoism,1980
27895,Gansu,Jiangtian Temple,35.721628,103.190669,4,Daoism,1983
27896,Gansu,Gongzhishan Mosque,35.528089,102.949016,5,Islam,1940
27897,Gansu,Gataizi Mosque,35.655515,103.133627,5,Islam,1980
27898,Gansu,Zhaizi Mosque,35.470629,102.989387,5,Islam,1985
27899,Gansu,Luohujia Mosque,35.472987,103.132414,5,Islam,1991
27900,Gansu,Hejiaguan Mosque,35.482441,103.140425,5,Islam,1986
27901,Gansu,Quanpo Mosque,35.473827,102.927427,5,Islam,1980
27902,Gansu,Gasishan Mosque,35.516819,102.914191,5,Islam,1986
27903,Gansu,Yin Family Temple,35.512663,103.20785,4,Daoism,1994
27904,Gansu,Weijia Temple,35.750901,103.139425,5,Islam,1978
27905,Gansu,Xiejiapo Temple,35.736114,103.168743,4,Daoism,1980
27906,Gansu,Pugou Mosque,35.592224,103.090783,5,Islam,1978
27907,Gansu,Tianjiashan Minor Temple,35.530198,103.219645,4,Daoism,1982
27908,Gansu,Shanlaowa Mosque,35.459726,103.125519,5,Islam,1982
27909,Gansu,Yaohe Buddhist Temple,35.556064,103.05626,3,Buddhism,1981
27910,Gansu,Hanjiashan Mosque,35.473827,102.927427,5,Islam,1982
27911,Gansu,Fushen Temple,35.643923,103.16885,4,Daoism,1927
27912,Gansu,Chengxi Temple,35.472159,103.063971,4,Daoism,1986
27913,Gansu,Yantongshan Mosque,35.489405,103.003534,5,Islam,1981
27914,Gansu,Bapai Temple,35.521961,103.176792,4,Daoism,1985
27915,Gansu,Shimentan Mosque,35.528592,102.865798,5,Islam,1972
27916,Gansu,Xianjiadui Mosque,35.497122,102.999422,5,Islam,1955
27917,Gansu,Qingjing Temple,35.512663,103.20785,5,Islam,1987
27918,Gansu,Beihouzhuang Mosque,35.523564,102.973213,5,Islam,1970
27919,Gansu,Siwan Temple,35.509093,103.051095,4,Daoism,1805
27920,Gansu,Bogetai Mosque,35.543104,102.874254,5,Islam,1981
27921,Gansu,Hexian Mosque,35.489405,103.003534,5,Islam,1979
27922,Gansu,Yangguangjiantan Mosque,35.447408,103.118681,5,Islam,1984
27923,Gansu,Xinzhuang Mosque,35.471858,102.952947,5,Islam,1980
27924,Gansu,Erlang Temple,35.470629,102.989387,4,Daoism,1963
27925,Gansu,Gaojia Mosque,35.454849,103.041876,5,Islam,1979
27926,Gansu,Shiju Mosque,35.446893,102.974092,5,Islam,1981
27927,Gansu,Fushen Temple,35.639051,103.20762,4,Daoism,1999
27928,Gansu,Tangga Mosque,35.511758,102.927321,5,Islam,1980
27929,Gansu,Yujiaping Temple,35.582385,103.129813,5,Islam,1979
27930,Gansu,Luojiawan Mosque,35.265006,103.550942,5,Islam,1980
27931,Gansu,Molu Mosque,35.399764,103.582519,5,Islam,1965
27932,Gansu,Lijia Temple,35.897993,102.966099,5,Islam,1979
27933,Gansu,Taibaba Qubba (Mosque),35.4788,103.5633,5,Islam,1985
27934,Gansu,Xiayaowan Mosque,35.393721,103.514811,5,Islam,1988
27935,Gansu,Mount Liangjing Shi Temple,35.42967,103.320777,4,Daoism,1984
27936,Gansu,Tianchi Temple,35.476876,103.363055,3,Buddhism,1985
27937,Gansu,Xinji Grand Mosque,35.364079,103.402194,5,Islam,1981
27938,Gansu,Dahuangdi Mosque,35.484076,103.389879,5,Islam,1980
27939,Gansu,Dazhilu Mosque,35.364079,103.402194,5,Islam,1982
27940,Gansu,Zhaizi Temple,35.364079,103.402194,4,Daoism,1985
27941,Gansu,Xiawozi Mosque,35.492903,103.243735,5,Islam,1982
27942,Gansu,Songshu Old Mosque,35.415009,103.279751,5,Islam,1979
27943,Gansu,Wolong Temple,35.389797,103.154713,3,Buddhism,1982
27944,Gansu,Yangtai Temple,35.445914,103.207791,5,Islam,1982
27945,Gansu,Shangwozi Mosque,35.492903,103.243735,5,Islam,1982
27946,Gansu,Fuling Temple,35.631438,103.26738,4,Daoism,1980
27947,Gansu,Hetan Mosque,35.631606,103.255947,5,Islam,1981
27948,Gansu,Gazhuang Mosque,35.631606,103.255947,5,Islam,1984
27949,Gansu,Qijiazhuang Mosque,35.897414,103.321407,5,Islam,1980
27950,Gansu,Zheqiao Grand Mosque,35.631606,103.255947,5,Islam,1981
27951,Gansu,Huancheng North Road Mosque Democratic Management Committee,35.66662,103.391,5,Islam,1995
27952,Gansu,City God Temple Management Committee,35.666308,103.390968,4,Daoism,1993
27953,Gansu,Gazhuang Lower Mosque,35.631606,103.255947,5,Islam,1978
27954,Gansu,Fengjiatai Mosque,35.631438,103.26738,5,Islam,1982
27955,Gansu,Luojiawan Mosque,35.631438,103.26738,5,Islam,1903
27956,Gansu,Hetanguan South Mosque,35.738073,103.236946,5,Islam,1986
27957,Gansu,Suoma Mosque Management Committee,35.664442,103.491415,5,Islam,1993
27958,Gansu,Wafang Mosque,35.631606,103.255947,5,Islam,1978
27959,Gansu,Gazhuang New Mosque,35.640961,103.256803,5,Islam,1979
27960,Gansu,Zhangjia Old Mosque,35.699396,103.254638,5,Islam,1981
27961,Gansu,Shangzhuang Mosque,35.677657,103.259385,5,Islam,1989
27962,Gansu,Hujia Yangwa Lower Mosque,35.651284,103.38099,5,Islam,1979
27963,Gansu,Wushan Temple Management Committee,35.666308,103.390968,4,Daoism,1989
27964,Gansu,Xiazhuang Mosque,35.677657,103.259385,5,Islam,1986
27965,Gansu,Hujia Yangwa Upper Mosque,35.651284,103.38099,5,Islam,1979
27966,Gansu,Zhangjia Village New Mosque,35.699396,103.254638,5,Islam,1981
27967,Gansu,Shitoutan Mosque,35.562816,103.281864,5,Islam,1983
27968,Gansu,Shangshitougou Mosque,35.562816,103.281864,5,Islam,1983
27969,Gansu,Beixiaoyuan Grand Mosque,35.677657,103.259385,5,Islam,1996
27970,Gansu,Hewan Mosque,35.677657,103.259385,5,Islam,1988
27971,Gansu,Majia Grand Mosque,35.633244,103.254788,5,Islam,1980
27972,Gansu,Qiaowo Village New Mosque,35.690312,103.268034,5,Islam,1976
27973,Gansu,Falun Temple,36.118534,103.350489,3,Buddhism,1994
27974,Gansu,Sanguan Temple,36.118534,103.350489,4,Daoism,1997
27975,Gansu,Xiaocigou Mosque Management Committee,36.115305,103.365238,5,Islam,1996
27976,Gansu,Qianguantai Mosque Management Committee,36.20467,103.104532,3,Buddhism,2004
27977,Gansu,Jixiang Temple,36.147011,103.279547,3,Buddhism,1986
27978,Gansu,Zhoujia Mosque Management Committee,36.153331,103.255296,3,Buddhism,1993
27979,Gansu,Hongcheng Lama Temple Management Committee,36.176615,103.19015,3,Buddhism,1995
27980,Gansu,Datan Mosque,35.222191,103.733701,5,Islam,1984
27981,Gansu,Quanlong Grand Buddhist Temple,35.222191,103.733701,3,Buddhism,1980
27982,Gansu,Jiupai Buddhist Temple,35.6058,103.9263,3,Buddhism,1980
27983,Gansu,Majiawan Lower Mosque,35.300513,103.960569,5,Islam,1985
27984,Gansu,Majiawan Village Mosque,35.300513,103.960569,5,Islam,1988
27985,Gansu,Xushangshe Mosque,35.635568,103.220017,5,Islam,1979
27986,Gansu,Zhongzhai Temple,35.65799,103.235825,4,Daoism,1984
